[{"id":96148,"type":"CITY","city":"Sântana","name":"Sântana","country":"Romania","countryCode":"RO","region":"Arad County","regionCode":"AR","latitude":46.35,"longitude":21.5},{"id":97062,"wikiDataId":"Q3116964","type":"CITY","city":"Sântana de Mureş","name":"Sântana de Mureş","country":"Romania","countryCode":"RO","region":"Mureș County","regionCode":"MS","latitude":46.56667,"longitude":24.55},{"id":96110,"wikiDataId":"Q13722890","type":"CITY","city":"Sântandrei","name":"Sântandrei","country":"Romania","countryCode":"RO","region":"Bihor County","regionCode":"BH","latitude":47.06615,"longitude":21.85352},{"id":96320,"wikiDataId":"Q876033","type":"CITY","city":"Sântimbru","name":"Sântimbru","country":"Romania","countryCode":"RO","region":"Harghita County","regionCode":"HR","latitude":46.28126,"longitude":25.85439},{"id":96427,"wikiDataId":"Q949485","type":"CITY","city":"Sântimbru","name":"Sântimbru","country":"Romania","countryCode":"RO","region":"Alba","regionCode":"AB","latitude":46.13333,"longitude":23.65},{"id":96923,"wikiDataId":"Q750757","type":"CITY","city":"Sântion","name":"Sântion","country":"Romania","countryCode":"RO","region":"Bihor County","regionCode":"BH","latitude":47.09634,"longitude":21.8366},{"id":96831,"wikiDataId":"Q5060225","type":"CITY","city":"Sântămăria-Orlea","name":"Sântămăria-Orlea","country":"Romania","countryCode":"RO","region":"Hunedoara County","regionCode":"HD","latitude":45.58874,"longitude":22.97042},{"id":96228,"wikiDataId":"Q1021475","type":"CITY","city":"Sânzieni","name":"Sânzieni","country":"Romania","countryCode":"RO","region":"Covasna County","regionCode":"CV","latitude":46.05,"longitude":26.13333},{"id":96509,"wikiDataId":"Q2721330","type":"CITY","city":"Sârbeni","name":"Sârbeni","country":"Romania","countryCode":"RO","region":"Teleorman County","regionCode":"TR","latitude":44.46667,"longitude":25.38333},{"id":96844,"wikiDataId":"Q1027833","type":"CITY","city":"Sârbi","name":"Sârbi","country":"Romania","countryCode":"RO","region":"Bihor County","regionCode":"BH","latitude":47.19315,"longitude":22.12215},
{"id":96904,"wikiDataId":"Q2377971","type":"CITY","city":"Sârbi","name":"Sârbi","country":"Romania","countryCode":"RO","region":"Botoșani County","regionCode":"BT","latitude":47.94268,"longitude":26.91818},{"id":96961,"wikiDataId":"Q659108","type":"CITY","city":"Sârbi","name":"Sârbi","country":"Romania","countryCode":"RO","region":"Maramureș County","regionCode":"MM","latitude":47.76184,"longitude":23.9449},{"id":96455,"wikiDataId":"Q13725268","type":"CITY","city":"Sînmartin","name":"Sînmartin","country":"Romania","countryCode":"RO","region":"Bihor County","regionCode":"BH","latitude":47.00726,"longitude":21.97418},{"id":97036,"wikiDataId":"Q1188944","type":"CITY","city":"Săbăoani","name":"Săbăoani","country":"Romania","countryCode":"RO","region":"Neamț County","regionCode":"NT","latitude":47.01667,"longitude":26.85},{"id":96999,"wikiDataId":"Q5092218","type":"CITY","city":"Săbăreni","name":"Săbăreni","country":"Romania","countryCode":"RO","region":"Giurgiu County","regionCode":"GR","latitude":44.50185,"longitude":25.8882},{"id":96382,"wikiDataId":"Q612539","type":"CITY","city":"Săcel","name":"Săcel","country":"Romania","countryCode":"RO","region":"Maramureș County","regionCode":"MM","latitude":47.63333,"longitude":24.43333},{"id":96740,"wikiDataId":"Q420507","type":"CITY","city":"Săcel","name":"Săcel","country":"Romania","countryCode":"RO","region":"Harghita County","regionCode":"HR","latitude":46.3,"longitude":24.93333},{"id":96303,"type":"CITY","city":"Săcele","name":"Săcele","country":"Romania","countryCode":"RO","region":"Brașov County","regionCode":"BV","latitude":45.61674,"longitude":25.71101},{"id":96924,"wikiDataId":"Q611726","type":"CITY","city":"Săcele","name":"Săcele","country":"Romania","countryCode":"RO","region":"Constanța County","regionCode":"CT","latitude":44.48333,"longitude":28.65},{"id":96519,"wikiDataId":"Q542684","type":"CITY","city":"Săcelu","name":"Săcelu","country":"Romania","countryCode":"RO","region":"Gorj County","regionCode":"GJ","latitude":45.1,"longitude":23.53333},
{"id":96824,"wikiDataId":"Q2604543","type":"CITY","city":"Săceni","name":"Săceni","country":"Romania","countryCode":"RO","region":"Teleorman County","regionCode":"TR","latitude":44.23333,"longitude":25.06667},{"id":96463,"wikiDataId":"Q12151750","type":"CITY","city":"Săcueni","name":"Săcueni","country":"Romania","countryCode":"RO","region":"Dâmbovița County","regionCode":"DB","latitude":44.91077,"longitude":25.57223},{"id":96616,"type":"CITY","city":"Săcueni","name":"Săcueni","country":"Romania","countryCode":"RO","region":"Bihor County","regionCode":"BH","latitude":47.35,"longitude":22.1},{"id":96347,"wikiDataId":"Q1188414","type":"CITY","city":"Săcuieu","name":"Săcuieu","country":"Romania","countryCode":"RO","region":"Cluj County","regionCode":"CJ","latitude":46.82335,"longitude":22.88824},{"id":96529,"wikiDataId":"Q2351097","type":"CITY","city":"Săcădat","name":"Săcădat","country":"Romania","countryCode":"RO","region":"Bihor County","regionCode":"BH","latitude":47.03333,"longitude":22.15},{"id":96790,"wikiDataId":"Q1014935","type":"CITY","city":"Săcălaz","name":"Săcălaz","country":"Romania","countryCode":"RO","region":"Timiș County","regionCode":"TM","latitude":45.75833,"longitude":21.11222},{"id":96314,"wikiDataId":"Q1188926","type":"CITY","city":"Săcălășeni","name":"Săcălășeni","country":"Romania","countryCode":"RO","region":"Maramureș County","regionCode":"MM","latitude":47.5818,"longitude":23.56432},{"id":97028,"wikiDataId":"Q1188198","type":"CITY","city":"Săcăşeni","name":"Săcăşeni","country":"Romania","countryCode":"RO","region":"Satu Mare County","regionCode":"SM","latitude":47.48333,"longitude":22.68333},{"id":96445,"wikiDataId":"Q12151485","type":"CITY","city":"Săgeata","name":"Săgeata","country":"Romania","countryCode":"RO","region":"Buzău County","regionCode":"BZ","latitude":45.1,"longitude":26.98333},{"id":96323,"wikiDataId":"Q12152497","type":"CITY","city":"Săhăteni","name":"Săhăteni","country":"Romania","countryCode":"RO","region":"Buzău County","regionCode":"BZ","latitude":45.03333,"longitude":26.51667},
{"id":97088,"wikiDataId":"Q1087994","type":"CITY","city":"Sălacea","name":"Sălacea","country":"Romania","countryCode":"RO","region":"Bihor County","regionCode":"BH","latitude":47.46667,"longitude":22.31667},{"id":96757,"wikiDataId":"Q1093221","type":"CITY","city":"Sălard","name":"Sălard","country":"Romania","countryCode":"RO","region":"Bihor County","regionCode":"BH","latitude":47.21667,"longitude":22.05},{"id":97027,"wikiDataId":"Q5062395","type":"CITY","city":"Sălaşu de Sus","name":"Sălaşu de Sus","country":"Romania","countryCode":"RO","region":"Hunedoara County","regionCode":"HD","latitude":45.51667,"longitude":22.95},{"id":97068,"wikiDataId":"Q14242323","type":"CITY","city":"Sălciile","name":"Sălciile","country":"Romania","countryCode":"RO","region":"Prahova County","regionCode":"PH","latitude":44.81667,"longitude":26.48333},{"id":96249,"wikiDataId":"Q12151836","type":"CITY","city":"Sălcioara","name":"Sălcioara","country":"Romania","countryCode":"RO","region":"Buzău County","regionCode":"BZ","latitude":45.30874,"longitude":27.17692},{"id":96889,"wikiDataId":"Q3656146","type":"CITY","city":"Sălcioara","name":"Sălcioara","country":"Romania","countryCode":"RO","region":"Tulcea County","regionCode":"TL","latitude":44.76667,"longitude":28.88333},{"id":96897,"wikiDataId":"Q3726450","type":"CITY","city":"Sălcioara","name":"Sălcioara","country":"Romania","countryCode":"RO","region":"Dâmbovița County","regionCode":"DB","latitude":44.71667,"longitude":25.58333},{"id":97077,"wikiDataId":"Q12151841","type":"CITY","city":"Sălcioara","name":"Sălcioara","country":"Romania","countryCode":"RO","region":"Ialomița County","regionCode":"IL","latitude":44.53333,"longitude":26.88333},{"id":96871,"wikiDataId":"Q3893080","type":"CITY","city":"Sălciua de Sus","name":"Sălciua de Sus","country":"Romania","countryCode":"RO","region":"Alba","regionCode":"AB","latitude":46.4,"longitude":23.41667},{"id":97061,"wikiDataId":"Q2723982","type":"CITY","city":"Sălcuţa","name":"Sălcuţa","country":"Romania","countryCode":"RO","region":"Dolj County","regionCode":"DJ","latitude":44.25,"longitude":23.43333},
{"id":96321,"wikiDataId":"Q12151823","type":"CITY","city":"Sălcuța","name":"Sălcuța","country":"Romania","countryCode":"RO","region":"Dolj County","regionCode":"DJ","latitude":44.15986,"longitude":23.70247},{"id":96792,"wikiDataId":"Q12151821","type":"CITY","city":"Sălcuța","name":"Sălcuța","country":"Romania","countryCode":"RO","region":"Dâmbovița County","regionCode":"DB","latitude":44.64374,"longitude":25.58103},{"id":97046,"type":"CITY","city":"Sălişte","name":"Sălişte","country":"Romania","countryCode":"RO","region":"Sibiu County","regionCode":"SB","latitude":45.79633,"longitude":23.88677},{"id":96765,"type":"CITY","city":"Săliştea de Sus","name":"Săliştea de Sus","country":"Romania","countryCode":"RO","region":"Maramureș County","regionCode":"MM","latitude":47.65,"longitude":24.35},{"id":96475,"wikiDataId":"Q1315617","type":"CITY","city":"Săliştea-Deal","name":"Săliştea-Deal","country":"Romania","countryCode":"RO","region":"Alba","regionCode":"AB","latitude":45.9,"longitude":23.4},{"id":96183,"wikiDataId":"Q663939","type":"CITY","city":"Săliștea","name":"Săliștea","country":"Romania","countryCode":"RO","region":"Alba","regionCode":"AB","latitude":45.90744,"longitude":23.39789},{"id":96836,"wikiDataId":"Q1065969","type":"CITY","city":"Sălsig","name":"Sălsig","country":"Romania","countryCode":"RO","region":"Maramureș County","regionCode":"MM","latitude":47.53333,"longitude":23.3},{"id":96306,"wikiDataId":"Q12151788","type":"CITY","city":"Sălătrucel","name":"Sălătrucel","country":"Romania","countryCode":"RO","region":"Vâlcea County","regionCode":"VL","latitude":45.25,"longitude":24.38333},{"id":97067,"wikiDataId":"Q12151789","type":"CITY","city":"Sălătrucu","name":"Sălătrucu","country":"Romania","countryCode":"RO","region":"Arges","regionCode":"AG","latitude":45.33333,"longitude":24.51667},{"id":96311,"wikiDataId":"Q1189673","type":"CITY","city":"Sălăţig","name":"Sălăţig","country":"Romania","countryCode":"RO","region":"Sălaj County","regionCode":"SJ","latitude":47.36667,"longitude":23.13333},
{"id":96597,"wikiDataId":"Q15822176","type":"CITY","city":"Sănduleni","name":"Sănduleni","country":"Romania","countryCode":"RO","region":"Bacău County","regionCode":"BC","latitude":46.45,"longitude":26.73333},{"id":97001,"wikiDataId":"Q1076062","type":"CITY","city":"Sănduleşti","name":"Sănduleşti","country":"Romania","countryCode":"RO","region":"Cluj County","regionCode":"CJ","latitude":46.58333,"longitude":23.71667},{"id":96861,"wikiDataId":"Q12152170","type":"CITY","city":"Săpoca","name":"Săpoca","country":"Romania","countryCode":"RO","region":"Buzău County","regionCode":"BZ","latitude":45.25,"longitude":26.75},{"id":96992,"wikiDataId":"Q12152179","type":"CITY","city":"Săpunari","name":"Săpunari","country":"Romania","countryCode":"RO","region":"Călărași County","regionCode":"CL","latitude":44.50141,"longitude":26.83665},{"id":96176,"wikiDataId":"Q782980","type":"CITY","city":"Săpânţa","name":"Săpânţa","country":"Romania","countryCode":"RO","region":"Maramureș County","regionCode":"MM","latitude":47.96667,"longitude":23.7},{"id":96466,"wikiDataId":"Q15882303","type":"CITY","city":"Sărata","name":"Sărata","country":"Romania","countryCode":"RO","region":"Bacău County","regionCode":"BC","latitude":46.50249,"longitude":26.86857},{"id":96827,"wikiDataId":"Q12152189","type":"CITY","city":"Sărata","name":"Sărata","country":"Romania","countryCode":"RO","region":"Dolj County","regionCode":"DJ","latitude":43.77436,"longitude":24.03351},{"id":96986,"wikiDataId":"Q1090700","type":"CITY","city":"Sărmaş","name":"Sărmaş","country":"Romania","countryCode":"RO","region":"Harghita County","regionCode":"HR","latitude":46.88333,"longitude":25.46667},{"id":97078,"type":"CITY","city":"Sărmaşu","name":"Sărmaşu","country":"Romania","countryCode":"RO","region":"Mureș County","regionCode":"MS","latitude":46.75,"longitude":24.16667},{"id":96140,"wikiDataId":"Q12741853","type":"CITY","city":"Săruleşti","name":"Săruleşti","country":"Romania","countryCode":"RO","region":"Călărași County","regionCode":"CL","latitude":44.41667,"longitude":26.65},
{"id":96641,"wikiDataId":"Q12152431","type":"CITY","city":"Săruleşti","name":"Săruleşti","country":"Romania","countryCode":"RO","region":"Buzău County","regionCode":"BZ","latitude":45.5,"longitude":26.75},{"id":96350,"wikiDataId":"Q12152429","type":"CITY","city":"Sărulești-Gară","name":"Sărulești-Gară","country":"Romania","countryCode":"RO","region":"Călărași County","regionCode":"CL","latitude":44.44444,"longitude":26.6578},{"id":96726,"wikiDataId":"Q726058","type":"CITY","city":"Sărăuad","name":"Sărăuad","country":"Romania","countryCode":"RO","region":"Satu Mare County","regionCode":"SM","latitude":47.47944,"longitude":22.62559},{"id":96613,"wikiDataId":"Q12725195","type":"CITY","city":"Sărățeni","name":"Sărățeni","country":"Romania","countryCode":"RO","region":"Ialomița County","regionCode":"IL","latitude":44.63422,"longitude":26.92686},{"id":97074,"wikiDataId":"Q920350","type":"CITY","city":"Sărățeni","name":"Sărățeni","country":"Romania","countryCode":"RO","region":"Mureș County","regionCode":"MS","latitude":46.56247,"longitude":25.01331},{"id":96978,"wikiDataId":"Q724842","type":"CITY","city":"Săsar","name":"Săsar","country":"Romania","countryCode":"RO","region":"Maramureș County","regionCode":"MM","latitude":47.64406,"longitude":23.49869},{"id":96560,"wikiDataId":"Q648947","type":"CITY","city":"Săsciori","name":"Săsciori","country":"Romania","countryCode":"RO","region":"Alba","regionCode":"AB","latitude":45.86667,"longitude":23.58333},{"id":96378,"wikiDataId":"Q12152474","type":"CITY","city":"Săteni","name":"Săteni","country":"Romania","countryCode":"RO","region":"Dâmbovița County","regionCode":"DB","latitude":44.97129,"longitude":25.41683},{"id":96189,"type":"CITY","city":"Sătmărel","name":"Sătmărel","country":"Romania","countryCode":"RO","region":"Satu Mare County","regionCode":"SM","latitude":47.7347,"longitude":22.79536},{"id":96563,"wikiDataId":"Q1069895","type":"CITY","city":"Săuca","name":"Săuca","country":"Romania","countryCode":"RO","region":"Satu Mare County","regionCode":"SM","latitude":47.46667,"longitude":22.48333},
{"id":96916,"wikiDataId":"Q15883092","type":"CITY","city":"Săucești","name":"Săucești","country":"Romania","countryCode":"RO","region":"Bacău County","regionCode":"BC","latitude":46.61853,"longitude":26.94141},{"id":96682,"wikiDataId":"Q2607620","type":"CITY","city":"Săuleşti","name":"Săuleşti","country":"Romania","countryCode":"RO","region":"Gorj County","regionCode":"GJ","latitude":44.8,"longitude":23.48333},{"id":96215,"wikiDataId":"Q13360843","type":"CITY","city":"Săveni","name":"Săveni","country":"Romania","countryCode":"RO","region":"Ialomița County","regionCode":"IL","latitude":44.6,"longitude":27.65},{"id":97079,"type":"CITY","city":"Săveni","name":"Săveni","country":"Romania","countryCode":"RO","region":"Botoșani County","regionCode":"BT","latitude":47.95,"longitude":26.86667},{"id":96099,"wikiDataId":"Q2605741","type":"CITY","city":"Săvineşti","name":"Săvineşti","country":"Romania","countryCode":"RO","region":"Neamț County","regionCode":"NT","latitude":46.85,"longitude":26.46667},{"id":96965,"wikiDataId":"Q1093861","type":"CITY","city":"Săvârşin","name":"Săvârşin","country":"Romania","countryCode":"RO","region":"Arad County","regionCode":"AR","latitude":46.01667,"longitude":22.23333},{"id":96106,"wikiDataId":"Q748706","type":"CITY","city":"Săvădisla","name":"Săvădisla","country":"Romania","countryCode":"RO","region":"Cluj County","regionCode":"CJ","latitude":46.68333,"longitude":23.45},{"id":96558,"wikiDataId":"Q12159661","type":"CITY","city":"Tabăra","name":"Tabăra","country":"Romania","countryCode":"RO","region":"Iași County","regionCode":"IS","latitude":47.57395,"longitude":27.41213},{"id":96341,"wikiDataId":"Q12159836","type":"CITY","city":"Talea","name":"Talea","country":"Romania","countryCode":"RO","region":"Prahova County","regionCode":"PH","latitude":45.22564,"longitude":25.56433},{"id":96572,"wikiDataId":"Q12159826","type":"CITY","city":"Talpa-Ogrăzile","name":"Talpa-Ogrăzile","country":"Romania","countryCode":"RO","region":"Teleorman County","regionCode":"TR","latitude":44.28726,"longitude":25.29328},
{"id":96348,"type":"CITY","city":"Talpa-Trivalea","name":"Talpa-Trivalea","country":"Romania","countryCode":"RO","region":"Teleorman County","regionCode":"TR","latitude":44.28333,"longitude":25.28333},{"id":96104,"wikiDataId":"Q248967","type":"CITY","city":"Talpoș","name":"Talpoș","country":"Romania","countryCode":"RO","region":"Bihor County","regionCode":"BH","latitude":46.69124,"longitude":21.80335},{"id":96898,"wikiDataId":"Q15894273","type":"CITY","city":"Tamaşi","name":"Tamaşi","country":"Romania","countryCode":"RO","region":"Bacău County","regionCode":"BC","latitude":46.48333,"longitude":26.98333},{"id":96459,"wikiDataId":"Q12159855","type":"CITY","city":"Tamași","name":"Tamași","country":"Romania","countryCode":"RO","region":"Ilfov County","regionCode":"IF","latitude":44.58438,"longitude":26.00724},{"id":96724,"wikiDataId":"Q12159871","type":"CITY","city":"Tanacu","name":"Tanacu","country":"Romania","countryCode":"RO","region":"Vaslui County","regionCode":"VS","latitude":46.68333,"longitude":27.81667},{"id":97038,"wikiDataId":"Q2718181","type":"CITY","city":"Tansa","name":"Tansa","country":"Romania","countryCode":"RO","region":"Iași County","regionCode":"IS","latitude":46.91667,"longitude":27.23333},{"id":96789,"wikiDataId":"Q1747380","type":"CITY","city":"Tarcea","name":"Tarcea","country":"Romania","countryCode":"RO","region":"Bihor County","regionCode":"BH","latitude":47.45,"longitude":22.18333},{"id":96227,"wikiDataId":"Q1065944","type":"CITY","city":"Tarcău","name":"Tarcău","country":"Romania","countryCode":"RO","region":"Neamț County","regionCode":"NT","latitude":46.86667,"longitude":26.13333},{"id":96626,"wikiDataId":"Q12160115","type":"CITY","city":"Tariverde","name":"Tariverde","country":"Romania","countryCode":"RO","region":"Constanța County","regionCode":"CT","latitude":44.56268,"longitude":28.60245},{"id":100387,"wikiDataId":"Q1190770","type":"CITY","city":"Tarna Mare","name":"Tarna Mare","country":"Romania","countryCode":"RO","region":"Satu Mare County","regionCode":"SM","latitude":48.09175,"longitude":23.19369},
{"id":96632,"wikiDataId":"Q999693","type":"CITY","city":"Tauţ","name":"Tauţ","country":"Romania","countryCode":"RO","region":"Arad County","regionCode":"AR","latitude":46.28333,"longitude":21.91667},{"id":96312,"wikiDataId":"Q428301","type":"CITY","city":"Tazlău","name":"Tazlău","country":"Romania","countryCode":"RO","region":"Neamț County","regionCode":"NT","latitude":46.71667,"longitude":26.46667},{"id":96895,"wikiDataId":"Q2605749","type":"CITY","city":"Taşca","name":"Taşca","country":"Romania","countryCode":"RO","region":"Neamț County","regionCode":"NT","latitude":46.9,"longitude":26.01667},{"id":96142,"wikiDataId":"Q1189029","type":"CITY","city":"Teaca","name":"Teaca","country":"Romania","countryCode":"RO","region":"Bistrița-Năsăud County","regionCode":"BN","latitude":46.91667,"longitude":24.51667},{"id":96329,"wikiDataId":"Q2416957","type":"CITY","city":"Teasc","name":"Teasc","country":"Romania","countryCode":"RO","region":"Dolj County","regionCode":"DJ","latitude":44.16454,"longitude":23.86461},{"id":96847,"type":"CITY","city":"Techirghiol","name":"Techirghiol","country":"Romania","countryCode":"RO","region":"Constanța County","regionCode":"CT","latitude":44.05,"longitude":28.6},{"id":96337,"type":"CITY","city":"Tecuci","name":"Tecuci","country":"Romania","countryCode":"RO","region":"Galați County","regionCode":"GL","latitude":45.84973,"longitude":27.43441},{"id":96580,"wikiDataId":"Q12160342","type":"CITY","city":"Tecuci","name":"Tecuci","country":"Romania","countryCode":"RO","region":"Teleorman County","regionCode":"TR","latitude":44.34179,"longitude":24.85966},{"id":96356,"wikiDataId":"Q2626018","type":"CITY","city":"Teiu","name":"Teiu","country":"Romania","countryCode":"RO","region":"Arges","regionCode":"AG","latitude":44.66667,"longitude":25.1},{"id":96864,"type":"CITY","city":"Teiuş","name":"Teiuş","country":"Romania","countryCode":"RO","region":"Alba","regionCode":"AB","latitude":46.2,"longitude":23.68333},
{"id":96179,"wikiDataId":"Q12160317","type":"CITY","city":"Teişani","name":"Teişani","country":"Romania","countryCode":"RO","region":"Prahova County","regionCode":"PH","latitude":45.23333,"longitude":25.98333},{"id":96265,"wikiDataId":"Q12160316","type":"CITY","city":"Teiș","name":"Teiș","country":"Romania","countryCode":"RO","region":"Dâmbovița County","regionCode":"DB","latitude":44.96285,"longitude":25.4028},{"id":96637,"wikiDataId":"Q1007534","type":"CITY","city":"Telciu","name":"Telciu","country":"Romania","countryCode":"RO","region":"Bistrița-Năsăud County","regionCode":"BN","latitude":47.43333,"longitude":24.4},{"id":96714,"wikiDataId":"Q1317615","type":"CITY","city":"Telcișor","name":"Telcișor","country":"Romania","countryCode":"RO","region":"Bistrița-Năsăud County","regionCode":"BN","latitude":47.46,"longitude":24.45158},{"id":96155,"wikiDataId":"Q1029393","type":"CITY","city":"Telec","name":"Telec","country":"Romania","countryCode":"RO","region":"Neamț County","regionCode":"NT","latitude":46.87979,"longitude":25.87775},{"id":96257,"wikiDataId":"Q12160352","type":"CITY","city":"Telega","name":"Telega","country":"Romania","countryCode":"RO","region":"Prahova County","regionCode":"PH","latitude":45.13333,"longitude":25.78333},{"id":96119,"wikiDataId":"Q12160376","type":"CITY","city":"Teleormanu","name":"Teleormanu","country":"Romania","countryCode":"RO","region":"Teleorman County","regionCode":"TR","latitude":43.96271,"longitude":25.45876},{"id":96664,"wikiDataId":"Q2717887","type":"CITY","city":"Teleşti","name":"Teleşti","country":"Romania","countryCode":"RO","region":"Gorj County","regionCode":"GJ","latitude":45.0,"longitude":23.08333},{"id":96723,"wikiDataId":"Q15279414","type":"CITY","city":"Teliu","name":"Teliu","country":"Romania","countryCode":"RO","region":"Brașov County","regionCode":"BV","latitude":45.69856,"longitude":25.8559},{"id":96806,"wikiDataId":"Q5053450","type":"CITY","city":"Teliucu Inferior","name":"Teliucu Inferior","country":"Romania","countryCode":"RO","region":"Hunedoara County","regionCode":"HD","latitude":45.71667,"longitude":22.88333},
{"id":96990,"wikiDataId":"Q1120881","type":"CITY","city":"Terebeşti","name":"Terebeşti","country":"Romania","countryCode":"RO","region":"Satu Mare County","regionCode":"SM","latitude":47.68333,"longitude":22.71667},{"id":96436,"wikiDataId":"Q608184","type":"CITY","city":"Teregova","name":"Teregova","country":"Romania","countryCode":"RO","region":"Caraș-Severin County","regionCode":"CS","latitude":45.15,"longitude":22.28333},{"id":96307,"wikiDataId":"Q1014888","type":"CITY","city":"Teremia Mare","name":"Teremia Mare","country":"Romania","countryCode":"RO","region":"Timiș County","regionCode":"TM","latitude":45.93528,"longitude":20.525},{"id":96200,"wikiDataId":"Q2532335","type":"CITY","city":"Terpeziţa","name":"Terpeziţa","country":"Romania","countryCode":"RO","region":"Dolj County","regionCode":"DJ","latitude":44.29191,"longitude":23.50559},{"id":96885,"wikiDataId":"Q609333","type":"CITY","city":"Teslui","name":"Teslui","country":"Romania","countryCode":"RO","region":"Olt County","regionCode":"OT","latitude":44.51667,"longitude":24.36667},{"id":99537,"wikiDataId":"Q2465751","type":"CITY","city":"Teslui","name":"Teslui","country":"Romania","countryCode":"RO","region":"Dolj County","regionCode":"DJ","latitude":44.20559,"longitude":24.15482},{"id":96620,"wikiDataId":"Q2285348","type":"CITY","city":"Tetoiu","name":"Tetoiu","country":"Romania","countryCode":"RO","region":"Vâlcea County","regionCode":"VL","latitude":44.75,"longitude":23.91667},{"id":96414,"wikiDataId":"Q12161119","type":"CITY","city":"Teșila","name":"Teșila","country":"Romania","countryCode":"RO","region":"Prahova County","regionCode":"PH","latitude":45.30352,"longitude":25.72324},{"id":96552,"wikiDataId":"Q12161117","type":"CITY","city":"Tețcoiu","name":"Tețcoiu","country":"Romania","countryCode":"RO","region":"Dâmbovița County","regionCode":"DB","latitude":44.68188,"longitude":25.43846},{"id":96370,"wikiDataId":"Q924287","type":"CITY","city":"Tia Mare","name":"Tia Mare","country":"Romania","countryCode":"RO","region":"Olt County","regionCode":"OT","latitude":43.86667,"longitude":24.63333},
{"id":96526,"wikiDataId":"Q2780028","type":"CITY","city":"Tichileşti","name":"Tichileşti","country":"Romania","countryCode":"RO","region":"Braila","regionCode":"BR","latitude":45.11667,"longitude":27.9},{"id":96443,"wikiDataId":"Q3891358","type":"CITY","city":"Ticuşu Vechi","name":"Ticuşu Vechi","country":"Romania","countryCode":"RO","region":"Brașov County","regionCode":"BV","latitude":45.93333,"longitude":25.1},{"id":96246,"wikiDataId":"Q890867","type":"CITY","city":"Ticvaniu Mare","name":"Ticvaniu Mare","country":"Romania","countryCode":"RO","region":"Caraș-Severin County","regionCode":"CS","latitude":45.13528,"longitude":21.63806},{"id":96270,"wikiDataId":"Q2470433","type":"CITY","city":"Tigveni","name":"Tigveni","country":"Romania","countryCode":"RO","region":"Arges","regionCode":"AG","latitude":45.13333,"longitude":24.58333},{"id":96525,"wikiDataId":"Q781759","type":"CITY","city":"Tiha Bârgăului","name":"Tiha Bârgăului","country":"Romania","countryCode":"RO","region":"Bistrița-Năsăud County","regionCode":"BN","latitude":47.23333,"longitude":24.76667},{"id":97019,"wikiDataId":"Q727593","type":"CITY","city":"Tihău","name":"Tihău","country":"Romania","countryCode":"RO","region":"Sălaj County","regionCode":"SJ","latitude":47.22724,"longitude":23.32964},{"id":96158,"wikiDataId":"Q1093233","type":"CITY","city":"Tileagd","name":"Tileagd","country":"Romania","countryCode":"RO","region":"Bihor County","regionCode":"BH","latitude":47.06667,"longitude":22.2},{"id":96389,"wikiDataId":"Q1077568","type":"CITY","city":"Tilişca","name":"Tilişca","country":"Romania","countryCode":"RO","region":"Sibiu County","regionCode":"SB","latitude":45.8,"longitude":23.85},{"id":96123,"wikiDataId":"Q2605624","type":"CITY","city":"Timişeşti","name":"Timişeşti","country":"Romania","countryCode":"RO","region":"Neamț County","regionCode":"NT","latitude":47.23333,"longitude":26.55},{"id":96879,"wikiDataId":"Q16898582","type":"CITY","city":"Timişoara","name":"Timişoara","country":"Romania","countryCode":"RO","region":"Timiș County","regionCode":"TM","latitude":45.75372,"longitude":21.22571},
{"id":96531,"wikiDataId":"Q1093201","type":"CITY","city":"Tinca","name":"Tinca","country":"Romania","countryCode":"RO","region":"Bihor County","regionCode":"BH","latitude":46.77529,"longitude":21.933},{"id":96335,"wikiDataId":"Q6455577","type":"CITY","city":"Tinosu","name":"Tinosu","country":"Romania","countryCode":"RO","region":"Prahova County","regionCode":"PH","latitude":44.81667,"longitude":26.01667},{"id":96256,"wikiDataId":"Q1176590","type":"CITY","city":"Tiream","name":"Tiream","country":"Romania","countryCode":"RO","region":"Satu Mare County","regionCode":"SM","latitude":47.61667,"longitude":22.46667},{"id":96845,"wikiDataId":"Q842210","type":"CITY","city":"Tisa","name":"Tisa","country":"Romania","countryCode":"RO","region":"Maramureș County","regionCode":"MM","latitude":47.94844,"longitude":23.95768},{"id":96663,"type":"CITY","city":"Tismana","name":"Tismana","country":"Romania","countryCode":"RO","region":"Gorj County","regionCode":"GJ","latitude":45.05,"longitude":22.96667},{"id":96244,"wikiDataId":"Q12168881","type":"CITY","city":"Titeşti","name":"Titeşti","country":"Romania","countryCode":"RO","region":"Arges","regionCode":"AG","latitude":45.01667,"longitude":25.0},{"id":96499,"wikiDataId":"Q12163256","type":"CITY","city":"Titești","name":"Titești","country":"Romania","countryCode":"RO","region":"Vâlcea County","regionCode":"VL","latitude":45.41971,"longitude":24.39323},{"id":96846,"type":"CITY","city":"Titu","name":"Titu","country":"Romania","countryCode":"RO","region":"Dâmbovița County","regionCode":"DB","latitude":44.65,"longitude":25.53333},{"id":96543,"type":"CITY","city":"Tiur","name":"Tiur","country":"Romania","countryCode":"RO","region":"Alba","regionCode":"AB","latitude":46.16009,"longitude":23.88927},{"id":100350,"wikiDataId":"Q764449","type":"CITY","city":"Toaca","name":"Toaca","country":"Romania","countryCode":"RO","region":"Mureș County","regionCode":"MS","latitude":46.79975,"longitude":24.9641},
{"id":96520,"wikiDataId":"Q899037","type":"CITY","city":"Toboliu","name":"Toboliu","country":"Romania","countryCode":"RO","region":"Bihor County","regionCode":"BH","latitude":47.04182,"longitude":21.71946},{"id":96614,"wikiDataId":"Q1313846","type":"CITY","city":"Tocileni","name":"Tocileni","country":"Romania","countryCode":"RO","region":"Botoșani County","regionCode":"BT","latitude":47.71104,"longitude":26.78657},{"id":96433,"wikiDataId":"Q2715559","type":"CITY","city":"Todireni","name":"Todireni","country":"Romania","countryCode":"RO","region":"Botoșani County","regionCode":"BT","latitude":47.61667,"longitude":27.11667},{"id":96304,"wikiDataId":"Q2718506","type":"CITY","city":"Todireşti","name":"Todireşti","country":"Romania","countryCode":"RO","region":"Iași County","regionCode":"IS","latitude":47.31667,"longitude":26.83333},{"id":96997,"wikiDataId":"Q2604054","type":"CITY","city":"Todireşti","name":"Todireşti","country":"Romania","countryCode":"RO","region":"Suceava County","regionCode":"SV","latitude":47.7,"longitude":26.03333},{"id":97051,"wikiDataId":"Q2547418","type":"CITY","city":"Todireşti","name":"Todireşti","country":"Romania","countryCode":"RO","region":"Vaslui County","regionCode":"VS","latitude":46.85,"longitude":27.36667},{"id":96876,"wikiDataId":"Q12162113","type":"CITY","city":"Toflea","name":"Toflea","country":"Romania","countryCode":"RO","region":"Galați County","regionCode":"GL","latitude":46.06372,"longitude":27.33411},{"id":96416,"type":"CITY","city":"Tohanu Nou","name":"Tohanu Nou","country":"Romania","countryCode":"RO","region":"Brașov County","regionCode":"BV","latitude":45.55208,"longitude":25.38622},{"id":96157,"wikiDataId":"Q1084723","type":"CITY","city":"Tomeşti","name":"Tomeşti","country":"Romania","countryCode":"RO","region":"Timiș County","regionCode":"TM","latitude":45.78333,"longitude":22.3},{"id":96654,"wikiDataId":"Q1059052","type":"CITY","city":"Tomeşti","name":"Tomeşti","country":"Romania","countryCode":"RO","region":"Iași County","regionCode":"IS","latitude":47.11667,"longitude":27.68333},
{"id":96882,"wikiDataId":"Q5070533","type":"CITY","city":"Tomeşti","name":"Tomeşti","country":"Romania","countryCode":"RO","region":"Hunedoara County","regionCode":"HD","latitude":46.21667,"longitude":22.65},{"id":96532,"wikiDataId":"Q876103","type":"CITY","city":"Tomești","name":"Tomești","country":"Romania","countryCode":"RO","region":"Harghita County","regionCode":"HR","latitude":46.55617,"longitude":25.77922},{"id":96651,"wikiDataId":"Q1191110","type":"CITY","city":"Tomnatic","name":"Tomnatic","country":"Romania","countryCode":"RO","region":"Timiș County","regionCode":"TM","latitude":45.98857,"longitude":20.66186},{"id":96825,"wikiDataId":"Q1909026","type":"CITY","city":"Tomşani","name":"Tomşani","country":"Romania","countryCode":"RO","region":"Vâlcea County","regionCode":"VL","latitude":45.11667,"longitude":24.05},{"id":96842,"wikiDataId":"Q6457120","type":"CITY","city":"Tomşani","name":"Tomşani","country":"Romania","countryCode":"RO","region":"Prahova County","regionCode":"PH","latitude":44.95,"longitude":26.28333},{"id":96886,"wikiDataId":"Q1077657","type":"CITY","city":"Topalu","name":"Topalu","country":"Romania","countryCode":"RO","region":"Constanța County","regionCode":"CT","latitude":44.54381,"longitude":28.04575},{"id":96351,"wikiDataId":"Q2549583","type":"CITY","city":"Topana","name":"Topana","country":"Romania","countryCode":"RO","region":"Olt County","regionCode":"OT","latitude":44.81667,"longitude":24.51667},{"id":96309,"wikiDataId":"Q12162026","type":"CITY","city":"Topile","name":"Topile","country":"Romania","countryCode":"RO","region":"Iași County","regionCode":"IS","latitude":47.2634,"longitude":26.66883},{"id":97015,"wikiDataId":"Q75492","type":"CITY","city":"Topleţ","name":"Topleţ","country":"Romania","countryCode":"RO","region":"Caraș-Severin County","regionCode":"CS","latitude":44.79722,"longitude":22.39444},{"id":97063,"wikiDataId":"Q12161977","type":"CITY","city":"Topliceni","name":"Topliceni","country":"Romania","countryCode":"RO","region":"Buzău County","regionCode":"BZ","latitude":45.41667,"longitude":27.0},
{"id":96853,"wikiDataId":"Q2304208","type":"CITY","city":"Topliţa","name":"Topliţa","country":"Romania","countryCode":"RO","region":"Hunedoara County","regionCode":"HD","latitude":45.68333,"longitude":22.78333},{"id":96517,"wikiDataId":"Q12161975","type":"CITY","city":"Toplița","name":"Toplița","country":"Romania","countryCode":"RO","region":"Arges","regionCode":"AG","latitude":45.09022,"longitude":24.73236},{"id":96801,"wikiDataId":"Q12162001","type":"CITY","city":"Topolița","name":"Topolița","country":"Romania","countryCode":"RO","region":"Neamț County","regionCode":"NT","latitude":47.16787,"longitude":26.38345},{"id":96219,"wikiDataId":"Q1041628","type":"CITY","city":"Topolog","name":"Topolog","country":"Romania","countryCode":"RO","region":"Tulcea County","regionCode":"TL","latitude":44.88333,"longitude":28.36667},{"id":97072,"wikiDataId":"Q16898103","type":"CITY","city":"Topoloveni","name":"Topoloveni","country":"Romania","countryCode":"RO","region":"Arges","regionCode":"AG","latitude":44.81667,"longitude":25.08333},{"id":96121,"wikiDataId":"Q1084841","type":"CITY","city":"Topolovăţu Mare","name":"Topolovăţu Mare","country":"Romania","countryCode":"RO","region":"Timiș County","regionCode":"TM","latitude":45.77389,"longitude":21.61889},{"id":96756,"wikiDataId":"Q2718030","type":"CITY","city":"Toporu","name":"Toporu","country":"Romania","countryCode":"RO","region":"Giurgiu County","regionCode":"GR","latitude":44.01056,"longitude":25.65278},{"id":97087,"wikiDataId":"Q15938827","type":"CITY","city":"Topraisar","name":"Topraisar","country":"Romania","countryCode":"RO","region":"Constanța County","regionCode":"CT","latitude":44.01667,"longitude":28.45},{"id":97043,"wikiDataId":"Q1195123","type":"CITY","city":"Tormac","name":"Tormac","country":"Romania","countryCode":"RO","region":"Timiș County","regionCode":"TM","latitude":45.52083,"longitude":21.49361},{"id":96739,"wikiDataId":"Q1188563","type":"CITY","city":"Tortoman","name":"Tortoman","country":"Romania","countryCode":"RO","region":"Constanța County","regionCode":"CT","latitude":44.35,"longitude":28.21667},
{"id":96550,"wikiDataId":"Q5064990","type":"CITY","city":"Toteşti","name":"Toteşti","country":"Romania","countryCode":"RO","region":"Hunedoara County","regionCode":"HD","latitude":45.56667,"longitude":22.88333},{"id":96741,"wikiDataId":"Q12162110","type":"CITY","city":"Totoești","name":"Totoești","country":"Romania","countryCode":"RO","region":"Iași County","regionCode":"IS","latitude":47.25107,"longitude":27.28879},{"id":96143,"wikiDataId":"Q1159649","type":"CITY","city":"Traian","name":"Traian","country":"Romania","countryCode":"RO","region":"Ialomița County","regionCode":"IL","latitude":44.7635,"longitude":27.34337},{"id":96243,"wikiDataId":"Q12162255","type":"CITY","city":"Traian","name":"Traian","country":"Romania","countryCode":"RO","region":"Braila","regionCode":"BR","latitude":45.18333,"longitude":27.73333},{"id":96288,"wikiDataId":"Q12162257","type":"CITY","city":"Traian","name":"Traian","country":"Romania","countryCode":"RO","region":"Neamț County","regionCode":"NT","latitude":46.83335,"longitude":26.57655},{"id":96319,"wikiDataId":"Q12162261","type":"CITY","city":"Traian","name":"Traian","country":"Romania","countryCode":"RO","region":"Tulcea County","regionCode":"TL","latitude":45.02876,"longitude":28.23518},{"id":96605,"wikiDataId":"Q2721556","type":"CITY","city":"Traian","name":"Traian","country":"Romania","countryCode":"RO","region":"Teleorman County","regionCode":"TR","latitude":43.76667,"longitude":25.0},{"id":96658,"wikiDataId":"Q15924458","type":"CITY","city":"Traian","name":"Traian","country":"Romania","countryCode":"RO","region":"Bacău County","regionCode":"BC","latitude":46.63333,"longitude":27.03333},{"id":96805,"wikiDataId":"Q2719985","type":"CITY","city":"Traian","name":"Traian","country":"Romania","countryCode":"RO","region":"Olt County","regionCode":"OT","latitude":44.01667,"longitude":24.45},{"id":96574,"wikiDataId":"Q773837","type":"CITY","city":"Traian Vuia","name":"Traian Vuia","country":"Romania","countryCode":"RO","region":"Timiș County","regionCode":"TM","latitude":45.8,"longitude":22.06667},
{"id":96820,"wikiDataId":"Q736596","type":"CITY","city":"Trei Sate","name":"Trei Sate","country":"Romania","countryCode":"RO","region":"Mureș County","regionCode":"MS","latitude":46.47572,"longitude":24.89855},{"id":96941,"wikiDataId":"Q12162318","type":"CITY","city":"Trestiana","name":"Trestiana","country":"Romania","countryCode":"RO","region":"Vaslui County","regionCode":"VS","latitude":46.2,"longitude":27.65},{"id":96735,"wikiDataId":"Q12162331","type":"CITY","city":"Trestieni","name":"Trestieni","country":"Romania","countryCode":"RO","region":"Giurgiu County","regionCode":"GR","latitude":44.50449,"longitude":25.75789},{"id":96135,"wikiDataId":"Q1094538","type":"CITY","city":"Treznea","name":"Treznea","country":"Romania","countryCode":"RO","region":"Sălaj County","regionCode":"SJ","latitude":47.1,"longitude":23.11667},{"id":96508,"wikiDataId":"Q2292706","type":"CITY","city":"Trifeşti","name":"Trifeşti","country":"Romania","countryCode":"RO","region":"Neamț County","regionCode":"NT","latitude":46.91667,"longitude":26.81667},{"id":96926,"wikiDataId":"Q2719626","type":"CITY","city":"Trifeşti","name":"Trifeşti","country":"Romania","countryCode":"RO","region":"Iași County","regionCode":"IS","latitude":47.45,"longitude":27.51667},{"id":96530,"wikiDataId":"Q726027","type":"CITY","city":"Trip","name":"Trip","country":"Romania","countryCode":"RO","region":"Satu Mare County","regionCode":"SM","latitude":47.9245,"longitude":23.37648},{"id":96448,"wikiDataId":"Q371050","type":"CITY","city":"Tritenii de Jos","name":"Tritenii de Jos","country":"Romania","countryCode":"RO","region":"Cluj County","regionCode":"CJ","latitude":46.58333,"longitude":24.0},{"id":96867,"wikiDataId":"Q755395","type":"CITY","city":"Tritenii de Sus","name":"Tritenii de Sus","country":"Romania","countryCode":"RO","region":"Cluj County","regionCode":"CJ","latitude":46.60544,"longitude":23.99849},{"id":96984,"wikiDataId":"Q2721524","type":"CITY","city":"Trivalea-Moşteni","name":"Trivalea-Moşteni","country":"Romania","countryCode":"RO","region":"Teleorman County","regionCode":"TR","latitude":44.26667,"longitude":25.23333},
{"id":96958,"wikiDataId":"Q2721535","type":"CITY","city":"Troianul","name":"Troianul","country":"Romania","countryCode":"RO","region":"Teleorman County","regionCode":"TR","latitude":44.0,"longitude":25.0},{"id":96639,"wikiDataId":"Q2715808","type":"CITY","city":"Truşeşti","name":"Truşeşti","country":"Romania","countryCode":"RO","region":"Botoșani County","regionCode":"BT","latitude":47.76667,"longitude":27.01667},{"id":97097,"wikiDataId":"Q12162293","type":"CITY","city":"Trăisteni","name":"Trăisteni","country":"Romania","countryCode":"RO","region":"Prahova County","regionCode":"PH","latitude":45.33857,"longitude":25.72767},{"id":96442,"wikiDataId":"Q12162753","type":"CITY","city":"Tudor Vladimirescu","name":"Tudor Vladimirescu","country":"Romania","countryCode":"RO","region":"Braila","regionCode":"BR","latitude":45.21667,"longitude":27.8},{"id":96516,"wikiDataId":"Q2539879","type":"CITY","city":"Tudor Vladimirescu","name":"Tudor Vladimirescu","country":"Romania","countryCode":"RO","region":"Galați County","regionCode":"GL","latitude":45.56667,"longitude":27.65},{"id":96705,"wikiDataId":"Q12162751","type":"CITY","city":"Tudor Vladimirescu","name":"Tudor Vladimirescu","country":"Romania","countryCode":"RO","region":"Botoșani County","regionCode":"BT","latitude":47.68635,"longitude":27.17211},{"id":96783,"wikiDataId":"Q12162758","type":"CITY","city":"Tudor Vladimirescu","name":"Tudor Vladimirescu","country":"Romania","countryCode":"RO","region":"Teleorman County","regionCode":"TR","latitude":43.94761,"longitude":24.90616},{"id":96126,"wikiDataId":"Q2284225","type":"CITY","city":"Tudora","name":"Tudora","country":"Romania","countryCode":"RO","region":"Botoșani County","regionCode":"BT","latitude":47.51667,"longitude":26.63333},{"id":96371,"type":"CITY","city":"Tufeni","name":"Tufeni","country":"Romania","countryCode":"RO","region":"Prahova County","regionCode":"PH","latitude":45.0579,"longitude":25.83976},{"id":96527,"wikiDataId":"Q2719007","type":"CITY","city":"Tufeni","name":"Tufeni","country":"Romania","countryCode":"RO","region":"Olt County","regionCode":"OT","latitude":44.36667,"longitude":24.78333},
{"id":96758,"wikiDataId":"Q1155345","type":"CITY","city":"Tufeşti","name":"Tufeşti","country":"Romania","countryCode":"RO","region":"Braila","regionCode":"BR","latitude":45.05,"longitude":27.81667},{"id":96131,"wikiDataId":"Q1088238","type":"CITY","city":"Tulca","name":"Tulca","country":"Romania","countryCode":"RO","region":"Bihor County","regionCode":"BH","latitude":46.78333,"longitude":21.78333},{"id":96547,"type":"CITY","city":"Tulcea","name":"Tulcea","country":"Romania","countryCode":"RO","region":"Tulcea County","regionCode":"TL","latitude":45.1787,"longitude":28.80501},{"id":96159,"wikiDataId":"Q612477","type":"CITY","city":"Tulgheş","name":"Tulgheş","country":"Romania","countryCode":"RO","region":"Harghita County","regionCode":"HR","latitude":46.95,"longitude":25.76667},{"id":97047,"wikiDataId":"Q12725220","type":"CITY","city":"Tulnici","name":"Tulnici","country":"Romania","countryCode":"RO","region":"Vrancea County","regionCode":"VN","latitude":45.91667,"longitude":26.66667},{"id":96833,"wikiDataId":"Q3726527","type":"CITY","city":"Tuluceşti","name":"Tuluceşti","country":"Romania","countryCode":"RO","region":"Galați County","regionCode":"GL","latitude":45.56667,"longitude":28.03333},{"id":96551,"wikiDataId":"Q1707028","type":"CITY","city":"Tunari","name":"Tunari","country":"Romania","countryCode":"RO","region":"Ilfov County","regionCode":"IF","latitude":44.55,"longitude":26.15},{"id":96146,"type":"CITY","city":"Tunelu-Teliu","name":"Tunelu-Teliu","country":"Romania","countryCode":"RO","region":"Brașov County","regionCode":"BV","latitude":45.7,"longitude":25.85},{"id":96816,"wikiDataId":"Q1089944","type":"CITY","city":"Tupilaţi","name":"Tupilaţi","country":"Romania","countryCode":"RO","region":"Neamț County","regionCode":"NT","latitude":47.06667,"longitude":26.63333},{"id":96665,"wikiDataId":"Q969857","type":"CITY","city":"Tur","name":"Tur","country":"Romania","countryCode":"RO","region":"Satu Mare County","regionCode":"SM","latitude":47.88231,"longitude":23.39045},
{"id":96983,"wikiDataId":"Q2606841","type":"CITY","city":"Turburea","name":"Turburea","country":"Romania","countryCode":"RO","region":"Gorj County","regionCode":"GJ","latitude":44.71667,"longitude":23.51667},{"id":96187,"type":"CITY","city":"Turceni","name":"Turceni","country":"Romania","countryCode":"RO","region":"Gorj County","regionCode":"GJ","latitude":44.68333,"longitude":23.36667},{"id":96477,"type":"CITY","city":"Turcești","name":"Turcești","country":"Romania","countryCode":"RO","region":"Vâlcea County","regionCode":"VL","latitude":45.04023,"longitude":23.86574},{"id":96712,"wikiDataId":"Q2717399","type":"CITY","city":"Turcineşti","name":"Turcineşti","country":"Romania","countryCode":"RO","region":"Gorj County","regionCode":"GJ","latitude":45.1,"longitude":23.33333},{"id":96759,"wikiDataId":"Q1041615","type":"CITY","city":"Turcoaia","name":"Turcoaia","country":"Romania","countryCode":"RO","region":"Tulcea County","regionCode":"TL","latitude":45.11667,"longitude":28.18333},{"id":96600,"wikiDataId":"Q3658195","type":"CITY","city":"Turda","name":"Turda","country":"Romania","countryCode":"RO","region":"Tulcea County","regionCode":"TL","latitude":44.97501,"longitude":28.62402},{"id":96670,"type":"CITY","city":"Turda","name":"Turda","country":"Romania","countryCode":"RO","region":"Cluj County","regionCode":"CJ","latitude":46.56667,"longitude":23.78333},{"id":96405,"wikiDataId":"Q15520545","type":"CITY","city":"Turdaş","name":"Turdaş","country":"Romania","countryCode":"RO","region":"Hunedoara County","regionCode":"HD","latitude":45.85,"longitude":23.11667},{"id":96928,"wikiDataId":"Q1325453","type":"CITY","city":"Tureac","name":"Tureac","country":"Romania","countryCode":"RO","region":"Bistrița-Năsăud County","regionCode":"BN","latitude":47.22967,"longitude":24.80589},{"id":96207,"wikiDataId":"Q1007278","type":"CITY","city":"Tureni","name":"Tureni","country":"Romania","countryCode":"RO","region":"Cluj County","regionCode":"CJ","latitude":46.62934,"longitude":23.7024}]
