[
    {
        "id":56447,
        "wikiDataId":"Q3636023",
        "type":"CITY",
        "city":"Bijapur",
        "name":"Bijapur",
        "country":"India",
        "countryCode":"IN",
        "region":"Karnataka",
        "regionCode":"KA",
        "latitude":16.82442,
        "longitude":75.71537
    },
    {
        "id":147994,
        "wikiDataId":"Q100164",
        "type":"ADM2",
        "city":"Bijapur",
        "name":"Bijapur",
        "country":"India",
        "countryCode":"IN",
        "region":"Chhattisgarh",
        "regionCode":"CT",
        "latitude":18.84322,
        "longitude":80.7761
    },
    {
        "id":56767,
        "type":"CITY",
        "city":"Bijbehara",
        "name":"Bijbehara",
        "country":"India",
        "countryCode":"IN",
        "region":"Jammu and Kashmir",
        "regionCode":"JK",
        "latitude":33.79378,
        "longitude":75.107
    },
    {
        "id":56641,
        "wikiDataId":"Q797126",
        "type":"CITY",
        "city":"Bijni",
        "name":"Bijni",
        "country":"India",
        "countryCode":"IN",
        "region":"Assam",
        "regionCode":"AS",
        "latitude":26.49588,
        "longitude":90.70298
    },
    {
        "id":147685,
        "wikiDataId":"Q1937865",
        "type":"ADM2",
        "city":"Bijnor",
        "name":"Bijnor",
        "country":"India",
        "countryCode":"IN",
        "region":"Uttar Pradesh",
        "regionCode":"UP",
        "latitude":29.41667,
        "longitude":78.51667
    },
    {
        "id":55848,
        "type":"CITY",
        "city":"Bijrauni",
        "name":"Bijrauni",
        "country":"India",
        "countryCode":"IN",
        "region":"Madhya Pradesh",
        "regionCode":"MP",
        "latitude":24.93296,
        "longitude":77.64352
    },
    {
        "id":147682,
        "type":"ADM2",
        "city":"Bijāpur",
        "name":"Bijāpur",
        "country":"India",
        "countryCode":"IN",
        "region":"Karnataka",
        "regionCode":"KA",
        "latitude":16.66667,
        "longitude":75.91667
    },
    {
        "id":56100,
        "wikiDataId":"Q797222",
        "type":"CITY",
        "city":"Bijāwar",
        "name":"Bijāwar",
        "country":"India",
        "countryCode":"IN",
        "region":"Madhya Pradesh",
        "regionCode":"MP",
        "latitude":24.62351,
        "longitude":79.48994
    },
    {
        "id":56179,
        "wikiDataId":"Q796526",
        "type":"CITY",
        "city":"Bikramganj",
        "name":"Bikramganj",
        "country":"India",
        "countryCode":"IN",
        "region":"Bihar",
        "regionCode":"BR",
        "latitude":25.21073,
        "longitude":84.25508
    },
    {
        "id":56309,
        "wikiDataId":"Q795717",
        "type":"CITY",
        "city":"Bilariāganj",
        "name":"Bilariāganj",
        "country":"India",
        "countryCode":"IN",
        "region":"Uttar Pradesh",
        "regionCode":"UP",
        "latitude":26.19593,
        "longitude":83.2269
    },
    {
        "id":56729,
        "type":"CITY",
        "city":"Bilaspur",
        "name":"Bilaspur",
        "country":"India",
        "countryCode":"IN",
        "region":"Himachal Pradesh",
        "regionCode":"HP",
        "latitude":31.33027,
        "longitude":76.75663
    },
    {
        "id":56341,
        "wikiDataId":"Q796485",
        "type":"CITY",
        "city":"Bilgi",
        "name":"Bilgi",
        "country":"India",
        "countryCode":"IN",
        "region":"Karnataka",
        "regionCode":"KA",
        "latitude":16.34714,
        "longitude":75.61804
    },
    {
        "id":55819,
        "wikiDataId":"Q795814",
        "type":"CITY",
        "city":"Bilgrām",
        "name":"Bilgrām",
        "country":"India",
        "countryCode":"IN",
        "region":"Uttar Pradesh",
        "regionCode":"UP",
        "latitude":27.17509,
        "longitude":80.03201
    },
    {
        "id":56395,
        "wikiDataId":"Q858170",
        "type":"CITY",
        "city":"Bilhaur",
        "name":"Bilhaur",
        "country":"India",
        "countryCode":"IN",
        "region":"Uttar Pradesh",
        "regionCode":"UP",
        "latitude":26.84345,
        "longitude":80.06388
    },
    {
        "id":56768,
        "wikiDataId":"Q862141",
        "type":"CITY",
        "city":"Bilimora",
        "name":"Bilimora",
        "country":"India",
        "countryCode":"IN",
        "region":"Gujarat",
        "regionCode":"GJ",
        "latitude":20.76957,
        "longitude":72.96134
    },
    {
        "id":56103,
        "type":"CITY",
        "city":"Bilkha",
        "name":"Bilkha",
        "country":"India",
        "countryCode":"IN",
        "region":"Gujarat",
        "regionCode":"GJ",
        "latitude":21.4415,
        "longitude":70.60063
    },
    {
        "id":56609,
        "wikiDataId":"Q861330",
        "type":"CITY",
        "city":"Biloli",
        "name":"Biloli",
        "country":"India",
        "countryCode":"IN",
        "region":"Maharashtra",
        "regionCode":"MH",
        "latitude":18.77385,
        "longitude":77.72463
    },
    {
        "id":55972,
        "wikiDataId":"Q861856",
        "type":"CITY",
        "city":"Bilsanda",
        "name":"Bilsanda",
        "country":"India",
        "countryCode":"IN",
        "region":"Uttar Pradesh",
        "regionCode":"UP",
        "latitude":28.24341,
        "longitude":79.95135
    },
    {
        "id":56115,
        "wikiDataId":"Q859148",
        "type":"CITY",
        "city":"Bilsi",
        "name":"Bilsi",
        "country":"India",
        "countryCode":"IN",
        "region":"Uttar Pradesh",
        "regionCode":"UP",
        "latitude":28.12941,
        "longitude":78.9109
    },
    {
        "id":55964,
        "type":"CITY",
        "city":"Bilthra",
        "name":"Bilthra",
        "country":"India",
        "countryCode":"IN",
        "region":"Uttar Pradesh",
        "regionCode":"UP",
        "latitude":26.12705,
        "longitude":83.89148
    },
    {
        "id":56704,
        "wikiDataId":"Q796497",
        "type":"CITY",
        "city":"Bilāra",
        "name":"Bilāra",
        "country":"India",
        "countryCode":"IN",
        "region":"Rajasthan",
        "regionCode":"RJ",
        "latitude":26.18067,
        "longitude":73.7055
    },
    {
        "id":56758,
        "wikiDataId":"Q796749",
        "type":"CITY",
        "city":"Bilāri",
        "name":"Bilāri",
        "country":"India",
        "countryCode":"IN",
        "region":"Uttar Pradesh",
        "regionCode":"UP",
        "latitude":28.62146,
        "longitude":78.80361
    },
    {
        "id":56163,
        "wikiDataId":"Q795803",
        "type":"CITY",
        "city":"Bilāsipāra",
        "name":"Bilāsipāra",
        "country":"India",
        "countryCode":"IN",
        "region":"Assam",
        "regionCode":"AS",
        "latitude":26.23285,
        "longitude":90.2341
    },
    {
        "id":56025,
        "wikiDataId":"Q3639927",
        "type":"CITY",
        "city":"Bilāspur",
        "name":"Bilāspur",
        "country":"India",
        "countryCode":"IN",
        "region":"Haryana",
        "regionCode":"HR",
        "latitude":30.3045,
        "longitude":77.30424
    },
    {
        "id":147681,
        "wikiDataId":"Q100157",
        "type":"ADM2",
        "city":"Bilāspur",
        "name":"Bilāspur",
        "country":"India",
        "countryCode":"IN",
        "region":"Chhattisgarh",
        "regionCode":"CT",
        "latitude":22.38333,
        "longitude":82.13333
    },
    {
        "id":147695,
        "wikiDataId":"Q1478939",
        "type":"ADM2",
        "city":"Bilāspur",
        "name":"Bilāspur",
        "country":"India",
        "countryCode":"IN",
        "region":"Himachal Pradesh",
        "regionCode":"HP",
        "latitude":31.33333,
        "longitude":76.75
    },
    {
        "id":56067,
        "wikiDataId":"Q858148",
        "type":"CITY",
        "city":"Bindki",
        "name":"Bindki",
        "country":"India",
        "countryCode":"IN",
        "region":"Uttar Pradesh",
        "regionCode":"UP",
        "latitude":26.03613,
        "longitude":80.57617
    },
    {
        "id":56288,
        "wikiDataId":"Q860226",
        "type":"CITY",
        "city":"Binka",
        "name":"Binka",
        "country":"India",
        "countryCode":"IN",
        "region":"Odisha",
        "regionCode":"OR",
        "latitude":21.02626,
        "longitude":83.81197
    },
    {
        "id":56566,
        "type":"CITY",
        "city":"Birbhaddar",
        "name":"Birbhaddar",
        "country":"India",
        "countryCode":"IN",
        "region":"Uttarakhand",
        "regionCode":"UT",
        "latitude":30.0712,
        "longitude":78.28189
    },
    {
        "id":56477,
        "type":"CITY",
        "city":"Birmitrapur",
        "name":"Birmitrapur",
        "country":"India",
        "countryCode":"IN",
        "region":"Odisha",
        "regionCode":"OR",
        "latitude":22.4,
        "longitude":84.76667
    },
    {
        "id":57625,
        "wikiDataId":"Q4916936",
        "type":"CITY",
        "city":"Birpara",
        "name":"Birpara",
        "country":"India",
        "countryCode":"IN",
        "region":"West Bengal",
        "regionCode":"WB",
        "latitude":26.70421,
        "longitude":89.14547
    },
    {
        "id":56139,
        "wikiDataId":"Q861119",
        "type":"CITY",
        "city":"Birūr",
        "name":"Birūr",
        "country":"India",
        "countryCode":"IN",
        "region":"Karnataka",
        "regionCode":"KA",
        "latitude":13.59723,
        "longitude":75.97167
    },
    {
        "id":55895,
        "wikiDataId":"Q862048",
        "type":"CITY",
        "city":"Bisauli",
        "name":"Bisauli",
        "country":"India",
        "countryCode":"IN",
        "region":"Uttar Pradesh",
        "regionCode":"UP",
        "latitude":28.30772,
        "longitude":78.93678
    },
    {
        "id":56701,
        "wikiDataId":"Q859094",
        "type":"CITY",
        "city":"Bisenda Buzurg",
        "name":"Bisenda Buzurg",
        "country":"India",
        "countryCode":"IN",
        "region":"Uttar Pradesh",
        "regionCode":"UP",
        "latitude":25.4035,
        "longitude":80.61889
    },
    {
        "id":56626,
        "wikiDataId":"Q3640429",
        "type":"CITY",
        "city":"Bishnupur",
        "name":"Bishnupur",
        "country":"India",
        "countryCode":"IN",
        "region":"West Bengal",
        "regionCode":"WB",
        "latitude":22.37777,
        "longitude":88.27411
    },
    {
        "id":147910,
        "type":"ADM2",
        "city":"Bishnupur",
        "name":"Bishnupur",
        "country":"India",
        "countryCode":"IN",
        "region":"Manipur",
        "regionCode":"MN",
        "latitude":24.60769,
        "longitude":93.77998
    },
    {
        "id":56009,
        "wikiDataId":"Q861136",
        "type":"CITY",
        "city":"Bishnāh",
        "name":"Bishnāh",
        "country":"India",
        "countryCode":"IN",
        "region":"Jammu and Kashmir",
        "regionCode":"JK",
        "latitude":32.6106,
        "longitude":74.85557
    },
    {
        "id":55024,
        "wikiDataId":"Q2606051",
        "type":"CITY",
        "city":"Bishunpur Urf Mahārājganj",
        "name":"Bishunpur Urf Mahārājganj",
        "country":"India",
        "countryCode":"IN",
        "region":"Uttar Pradesh",
        "regionCode":"UP",
        "latitude":26.25914,
        "longitude":83.11643
    },
    {
        "id":56570,
        "wikiDataId":"Q739697",
        "type":"CITY",
        "city":"Bissāu",
        "name":"Bissāu",
        "country":"India",
        "countryCode":"IN",
        "region":"Rajasthan",
        "regionCode":"RJ",
        "latitude":28.24737,
        "longitude":75.07666
    },
    {
        "id":56093,
        "wikiDataId":"Q858291",
        "type":"CITY",
        "city":"Biswān",
        "name":"Biswān",
        "country":"India",
        "countryCode":"IN",
        "region":"Uttar Pradesh",
        "regionCode":"UP",
        "latitude":27.49581,
        "longitude":80.99618
    },
    {
        "id":56420,
        "type":"CITY",
        "city":"Bithūr",
        "name":"Bithūr",
        "country":"India",
        "countryCode":"IN",
        "region":"Uttar Pradesh",
        "regionCode":"UP",
        "latitude":26.60664,
        "longitude":80.27098
    },
    {
        "id":55941,
        "wikiDataId":"Q861841",
        "type":"CITY",
        "city":"Bobbili",
        "name":"Bobbili",
        "country":"India",
        "countryCode":"IN",
        "region":"Andhra Pradesh",
        "regionCode":"AP",
        "latitude":18.57366,
        "longitude":83.35925
    },
    {
        "id":56519,
        "wikiDataId":"Q859167",
        "type":"CITY",
        "city":"Bodhan",
        "name":"Bodhan",
        "country":"India",
        "countryCode":"IN",
        "region":"Telangana",
        "regionCode":"TG",
        "latitude":18.66208,
        "longitude":77.88581
    },
    {
        "id":55785,
        "wikiDataId":"Q859153",
        "type":"CITY",
        "city":"Bodināyakkanūr",
        "name":"Bodināyakkanūr",
        "country":"India",
        "countryCode":"IN",
        "region":"Tamil Nadu",
        "regionCode":"TN",
        "latitude":10.01171,
        "longitude":77.34976
    },
    {
        "id":56233,
        "wikiDataId":"Q858405",
        "type":"CITY",
        "city":"Bodri",
        "name":"Bodri",
        "country":"India",
        "countryCode":"IN",
        "region":"Madhya Pradesh",
        "regionCode":"MP",
        "latitude":23.16524,
        "longitude":81.43262
    },
    {
        "id":56473,
        "wikiDataId":"Q858592",
        "type":"CITY",
        "city":"Boisar",
        "name":"Boisar",
        "country":"India",
        "countryCode":"IN",
        "region":"Maharashtra",
        "regionCode":"MH",
        "latitude":19.80362,
        "longitude":72.75598
    },
    {
        "id":56671,
        "wikiDataId":"Q633816",
        "type":"CITY",
        "city":"Bokajān",
        "name":"Bokajān",
        "country":"India",
        "countryCode":"IN",
        "region":"Assam",
        "regionCode":"AS",
        "latitude":26.02131,
        "longitude":93.77945
    },
    {
        "id":147786,
        "wikiDataId":"Q2295925",
        "type":"ADM2",
        "city":"Bokaro",
        "name":"Bokaro",
        "country":"India",
        "countryCode":"IN",
        "region":"Jharkhand",
        "regionCode":"JH",
        "latitude":23.68562,
        "longitude":85.99026
    },
    {
        "id":56743,
        "wikiDataId":"Q859160",
        "type":"CITY",
        "city":"Bokākhāt",
        "name":"Bokākhāt",
        "country":"India",
        "countryCode":"IN",
        "region":"Assam",
        "regionCode":"AS",
        "latitude":26.64018,
        "longitude":93.60052
    },
    {
        "id":56635,
        "wikiDataId":"Q1926941",
        "type":"CITY",
        "city":"Bokāro",
        "name":"Bokāro",
        "country":"India",
        "countryCode":"IN",
        "region":"Jharkhand",
        "regionCode":"JH",
        "latitude":23.78707,
        "longitude":85.95644
    },
    {
        "id":56106,
        "wikiDataId":"Q858304",
        "type":"CITY",
        "city":"Bolpur",
        "name":"Bolpur",
        "country":"India",
        "countryCode":"IN",
        "region":"West Bengal",
        "regionCode":"WB",
        "latitude":23.66278,
        "longitude":87.69695
    },
    {
        "id":56612,
        "type":"CITY",
        "city":"Bolānīkhodān",
        "name":"Bolānīkhodān",
        "country":"India",
        "countryCode":"IN",
        "region":"Odisha",
        "regionCode":"OR",
        "latitude":22.11312,
        "longitude":85.33645
    },
    {
        "id":56369,
        "wikiDataId":"Q859141",
        "type":"CITY",
        "city":"Bomdila",
        "name":"Bomdila",
        "country":"India",
        "countryCode":"IN",
        "region":"Arunachal Pradesh",
        "regionCode":"AR",
        "latitude":27.26475,
        "longitude":92.42472
    },
    {
        "id":147821,
        "wikiDataId":"Q42197",
        "type":"ADM2",
        "city":"Bongaigaon",
        "name":"Bongaigaon",
        "country":"India",
        "countryCode":"IN",
        "region":"Assam",
        "regionCode":"AS",
        "latitude":26.4603,
        "longitude":90.6464
    },
    {
        "id":55865,
        "wikiDataId":"Q4945504",
        "type":"CITY",
        "city":"Borivli",
        "name":"Borivli",
        "country":"India",
        "countryCode":"IN",
        "region":"Maharashtra",
        "regionCode":"MH",
        "latitude":19.23496,
        "longitude":72.85976
    },
    {
        "id":56831,
        "type":"CITY",
        "city":"Borkhera",
        "name":"Borkhera",
        "country":"India",
        "countryCode":"IN",
        "region":"Rajasthan",
        "regionCode":"RJ",
        "latitude":25.52115,
        "longitude":75.64028
    },
    {
        "id":56543,
        "wikiDataId":"Q858219",
        "type":"CITY",
        "city":"Borsad",
        "name":"Borsad",
        "country":"India",
        "countryCode":"IN",
        "region":"Gujarat",
        "regionCode":"GJ",
        "latitude":22.40788,
        "longitude":72.89817
    },
    {
        "id":56045,
        "wikiDataId":"Q858162",
        "type":"CITY",
        "city":"Botād",
        "name":"Botād",
        "country":"India",
        "countryCode":"IN",
        "region":"Gujarat",
        "regionCode":"GJ",
        "latitude":22.16917,
        "longitude":71.66671
    },
    {
        "id":55990,
        "wikiDataId":"Q860210",
        "type":"CITY",
        "city":"Brahmapur",
        "name":"Brahmapur",
        "country":"India",
        "countryCode":"IN",
        "region":"Odisha",
        "regionCode":"OR",
        "latitude":19.31151,
        "longitude":84.7929
    },
    {
        "id":56338,
        "wikiDataId":"Q860215",
        "type":"CITY",
        "city":"Brājarājnagar",
        "name":"Brājarājnagar",
        "country":"India",
        "countryCode":"IN",
        "region":"Odisha",
        "regionCode":"OR",
        "latitude":21.81667,
        "longitude":83.91667
    },
    {
        "id":147670,
        "wikiDataId":"Q1815262",
        "type":"ADM2",
        "city":"Budaun",
        "name":"Budaun",
        "country":"India",
        "countryCode":"IN",
        "region":"Uttar Pradesh",
        "regionCode":"UP",
        "latitude":28.11667,
        "longitude":78.98333
    },
    {
        "id":56133,
        "wikiDataId":"Q176767",
        "type":"CITY",
        "city":"Buddh Gaya",
        "name":"Buddh Gaya",
        "country":"India",
        "countryCode":"IN",
        "region":"Bihar",
        "regionCode":"BR",
        "latitude":24.69808,
        "longitude":84.9869
    },
    {
        "id":56607,
        "wikiDataId":"Q783187",
        "type":"CITY",
        "city":"Budhlāda",
        "name":"Budhlāda",
        "country":"India",
        "countryCode":"IN",
        "region":"Punjab",
        "regionCode":"PB",
        "latitude":29.92799,
        "longitude":75.56205
    },
    {
        "id":56296,
        "wikiDataId":"Q861968",
        "type":"CITY",
        "city":"Budhāna",
        "name":"Budhāna",
        "country":"India",
        "countryCode":"IN",
        "region":"Uttar Pradesh",
        "regionCode":"UP",
        "latitude":29.28805,
        "longitude":77.47534
    },
    {
        "id":56034,
        "wikiDataId":"Q858514",
        "type":"CITY",
        "city":"Buguda",
        "name":"Buguda",
        "country":"India",
        "countryCode":"IN",
        "region":"Odisha",
        "regionCode":"OR",
        "latitude":19.80806,
        "longitude":84.79084
    },
    {
        "id":147675,
        "wikiDataId":"Q1752328",
        "type":"ADM2",
        "city":"Bulandshahr",
        "name":"Bulandshahr",
        "country":"India",
        "countryCode":"IN",
        "region":"Uttar Pradesh",
        "regionCode":"UP",
        "latitude":28.41667,
        "longitude":77.83333
    },
    {
        "id":147671,
        "type":"ADM2",
        "city":"Buldana",
        "name":"Buldana",
        "country":"India",
        "countryCode":"IN",
        "region":"Maharashtra",
        "regionCode":"MH",
        "latitude":20.58333,
        "longitude":76.41667
    },
    {
        "id":56518,
        "wikiDataId":"Q47934",
        "type":"CITY",
        "city":"Buldāna",
        "name":"Buldāna",
        "country":"India",
        "countryCode":"IN",
        "region":"Maharashtra",
        "regionCode":"MH",
        "latitude":20.52933,
        "longitude":76.18457
    },
    {
        "id":147929,
        "wikiDataId":"Q2125592",
        "type":"ADM2",
        "city":"Burhanpur",
        "name":"Burhanpur",
        "country":"India",
        "countryCode":"IN",
        "region":"Madhya Pradesh",
        "regionCode":"MP",
        "latitude":21.31,
        "longitude":76.23
    },
    {
        "id":56153,
        "wikiDataId":"Q861346",
        "type":"CITY",
        "city":"Burhar",
        "name":"Burhar",
        "country":"India",
        "countryCode":"IN",
        "region":"Madhya Pradesh",
        "regionCode":"MP",
        "latitude":23.21494,
        "longitude":81.53204
    },
    {
        "id":56053,
        "wikiDataId":"Q593193",
        "type":"CITY",
        "city":"Burhānpur",
        "name":"Burhānpur",
        "country":"India",
        "countryCode":"IN",
        "region":"Madhya Pradesh",
        "regionCode":"MP",
        "latitude":21.30868,
        "longitude":76.23026
    },
    {
        "id":56368,
        "wikiDataId":"Q1937513",
        "type":"CITY",
        "city":"Burla",
        "name":"Burla",
        "country":"India",
        "countryCode":"IN",
        "region":"Odisha",
        "regionCode":"OR",
        "latitude":21.50976,
        "longitude":83.87259
    },
    {
        "id":147794,
        "wikiDataId":"Q49161",
        "type":"ADM2",
        "city":"Buxar",
        "name":"Buxar",
        "country":"India",
        "countryCode":"IN",
        "region":"Bihar",
        "regionCode":"BR",
        "latitude":25.5,
        "longitude":84.1
    },
    {
        "id":57611,
        "wikiDataId":"Q3595293",
        "type":"CITY",
        "city":"Byndoor",
        "name":"Byndoor",
        "country":"India",
        "countryCode":"IN",
        "region":"Karnataka",
        "regionCode":"KA",
        "latitude":13.86667,
        "longitude":74.63333
    },
    {
        "id":56709,
        "wikiDataId":"Q858385",
        "type":"CITY",
        "city":"Byādgi",
        "name":"Byādgi",
        "country":"India",
        "countryCode":"IN",
        "region":"Karnataka",
        "regionCode":"KA",
        "latitude":14.67325,
        "longitude":75.4868
    },
    {
        "id":57690,
        "wikiDataId":"Q765367",
        "type":"CITY",
        "city":"Bābai",
        "name":"Bābai",
        "country":"India",
        "countryCode":"IN",
        "region":"Madhya Pradesh",
        "regionCode":"MP",
        "latitude":22.70256,
        "longitude":77.93494
    },
    {
        "id":57332,
        "wikiDataId":"Q8239185",
        "type":"CITY",
        "city":"Bābra",
        "name":"Bābra",
        "country":"India",
        "countryCode":"IN",
        "region":"Gujarat",
        "regionCode":"GJ",
        "latitude":21.84577,
        "longitude":71.30544
    },
    {
        "id":57452,
        "type":"CITY",
        "city":"Bādāmi",
        "name":"Bādāmi",
        "country":"India",
        "countryCode":"IN",
        "region":"Karnataka",
        "regionCode":"KA",
        "latitude":15.91495,
        "longitude":75.67683
    },
    {
        "id":57180,
        "wikiDataId":"Q1924964",
        "type":"CITY",
        "city":"Bāg",
        "name":"Bāg",
        "country":"India",
        "countryCode":"IN",
        "region":"Madhya Pradesh",
        "regionCode":"MP",
        "latitude":22.35905,
        "longitude":74.79052
    },
    {
        "id":57394,
        "wikiDataId":"Q633164",
        "type":"CITY",
        "city":"Bāgepalli",
        "name":"Bāgepalli",
        "country":"India",
        "countryCode":"IN",
        "region":"Karnataka",
        "regionCode":"KA",
        "latitude":13.78338,
        "longitude":77.79667
    },
    {
        "id":57552,
        "wikiDataId":"Q638649",
        "type":"CITY",
        "city":"Bāgeshwar",
        "name":"Bāgeshwar",
        "country":"India",
        "countryCode":"IN",
        "region":"Uttarakhand",
        "regionCode":"UT",
        "latitude":29.83738,
        "longitude":79.77161
    },
    {
        "id":57139,
        "wikiDataId":"Q625714",
        "type":"CITY",
        "city":"Bāgha Purāna",
        "name":"Bāgha Purāna",
        "country":"India",
        "countryCode":"IN",
        "region":"Punjab",
        "regionCode":"PB",
        "latitude":30.68809,
        "longitude":75.09838
    },
    {
        "id":57620,
        "wikiDataId":"Q624402",
        "type":"CITY",
        "city":"Bāghpat",
        "name":"Bāghpat",
        "country":"India",
        "countryCode":"IN",
        "region":"Uttar Pradesh",
        "regionCode":"UP",
        "latitude":28.94485,
        "longitude":77.21865
    },
    {
        "id":57616,
        "wikiDataId":"Q2719910",
        "type":"CITY",
        "city":"Bāgli",
        "name":"Bāgli",
        "country":"India",
        "countryCode":"IN",
        "region":"Madhya Pradesh",
        "regionCode":"MP",
        "latitude":22.64124,
        "longitude":76.34877
    },
    {
        "id":57559,
        "type":"CITY",
        "city":"Bāgnān",
        "name":"Bāgnān",
        "country":"India",
        "countryCode":"IN",
        "region":"West Bengal",
        "regionCode":"WB",
        "latitude":22.93338,
        "longitude":88.13856
    },
    {
        "id":57381,
        "wikiDataId":"Q633132",
        "type":"CITY",
        "city":"Bāh",
        "name":"Bāh",
        "country":"India",
        "countryCode":"IN",
        "region":"Uttar Pradesh",
        "regionCode":"UP",
        "latitude":26.86912,
        "longitude":78.59385
    },
    {
        "id":56790,
        "wikiDataId":"Q2426646",
        "type":"CITY",
        "city":"Bājna",
        "name":"Bājna",
        "country":"India",
        "countryCode":"IN",
        "region":"Uttar Pradesh",
        "regionCode":"UP",
        "latitude":27.89793,
        "longitude":77.67836
    },
    {
        "id":147717,
        "wikiDataId":"Q2022279",
        "type":"ADM2",
        "city":"Bāleshwar",
        "name":"Bāleshwar",
        "country":"India",
        "countryCode":"IN",
        "region":"Odisha",
        "regionCode":"OR",
        "latitude":21.5,
        "longitude":86.75
    },
    {
        "id":57040,
        "wikiDataId":"Q632862",
        "type":"CITY",
        "city":"Bāli",
        "name":"Bāli",
        "country":"India",
        "countryCode":"IN",
        "region":"Rajasthan",
        "regionCode":"RJ",
        "latitude":25.19725,
        "longitude":73.29117
    },
    {
        "id":57274,
        "wikiDataId":"Q601897",
        "type":"CITY",
        "city":"Bāli",
        "name":"Bāli",
        "country":"India",
        "countryCode":"IN",
        "region":"West Bengal",
        "regionCode":"WB",
        "latitude":22.64859,
        "longitude":88.34115
    },
    {
        "id":57289,
        "type":"CITY",
        "city":"Bāli Chak",
        "name":"Bāli Chak",
        "country":"India",
        "countryCode":"IN",
        "region":"West Bengal",
        "regionCode":"WB",
        "latitude":22.36482,
        "longitude":87.55304
    },
    {
        "id":57411,
        "wikiDataId":"Q638695",
        "type":"CITY",
        "city":"Bālotra",
        "name":"Bālotra",
        "country":"India",
        "countryCode":"IN",
        "region":"Rajasthan",
        "regionCode":"RJ",
        "latitude":25.83242,
        "longitude":72.24
    },
    {
        "id":57415,
        "wikiDataId":"Q632799",
        "type":"CITY",
        "city":"Bālugaon",
        "name":"Bālugaon",
        "country":"India",
        "countryCode":"IN",
        "region":"Odisha",
        "regionCode":"OR",
        "latitude":20.17838,
        "longitude":85.11327
    },
    {
        "id":57553,
        "wikiDataId":"Q633291",
        "type":"CITY",
        "city":"Bālurghāt",
        "name":"Bālurghāt",
        "country":"India",
        "countryCode":"IN",
        "region":"West Bengal",
        "regionCode":"WB",
        "latitude":25.22099,
        "longitude":88.77732
    },
    {
        "id":57209,
        "type":"CITY",
        "city":"Bālāchor",
        "name":"Bālāchor",
        "country":"India",
        "countryCode":"IN",
        "region":"Punjab",
        "regionCode":"PB",
        "latitude":31.06062,
        "longitude":76.30166
    },
    {
        "id":147716,
        "wikiDataId":"Q641904",
        "type":"ADM2",
        "city":"Bālāghāt",
        "name":"Bālāghāt",
        "country":"India",
        "countryCode":"IN",
        "region":"Madhya Pradesh",
        "regionCode":"MP",
        "latitude":21.96667,
        "longitude":80.33333
    },
    {
        "id":56984,
        "type":"CITY",
        "city":"Bālāpur",
        "name":"Bālāpur",
        "country":"India",
        "countryCode":"IN",
        "region":"Telangana",
        "regionCode":"TG",
        "latitude":17.31018,
        "longitude":78.49969
    },
    {
        "id":57261,
        "wikiDataId":"Q2315612",
        "type":"CITY",
        "city":"Bālāpur",
        "name":"Bālāpur",
        "country":"India",
        "countryCode":"IN",
        "region":"Maharashtra",
        "regionCode":"MH",
        "latitude":20.66612,
        "longitude":76.77386
    },
    {
        "id":57467,
        "wikiDataId":"Q622611",
        "type":"CITY",
        "city":"Bāmor Kalān",
        "name":"Bāmor Kalān",
        "country":"India",
        "countryCode":"IN",
        "region":"Madhya Pradesh",
        "regionCode":"MP",
        "latitude":24.89298,
        "longitude":78.15105
    },
    {
        "id":57418,
        "wikiDataId":"Q632773",
        "type":"CITY",
        "city":"Bānapur",
        "name":"Bānapur",
        "country":"India",
        "countryCode":"IN",
        "region":"Odisha",
        "regionCode":"OR",
        "latitude":19.77889,
        "longitude":85.17033
    },
    {
        "id":147705,
        "wikiDataId":"Q2131759",
        "type":"ADM2",
        "city":"Bānda",
        "name":"Bānda",
        "country":"India",
        "countryCode":"IN",
        "region":"Uttar Pradesh",
        "regionCode":"UP",
        "latitude":25.5,
        "longitude":80.5
    },
    {
        "id":57399,
        "wikiDataId":"Q629203",
        "type":"CITY",
        "city":"Bāndīkūi",
        "name":"Bāndīkūi",
        "country":"India",
        "countryCode":"IN",
        "region":"Rajasthan",
        "regionCode":"RJ",
        "latitude":27.05087,
        "longitude":76.57325
    },
    {
        "id":57511,
        "wikiDataId":"Q607333",
        "type":"CITY",
        "city":"Bāngarmau",
        "name":"Bāngarmau",
        "country":"India",
        "countryCode":"IN",
        "region":"Uttar Pradesh",
        "regionCode":"UP",
        "latitude":26.8912,
        "longitude":80.21149
    },
    {
        "id":57768,
        "wikiDataId":"Q1609246",
        "type":"CITY",
        "city":"Bānka",
        "name":"Bānka",
        "country":"India",
        "countryCode":"IN",
        "region":"Bihar",
        "regionCode":"BR",
        "latitude":24.88091,
        "longitude":86.92257
    },
    {
        "id":57347,
        "wikiDataId":"Q2563333",
        "type":"CITY",
        "city":"Bānki",
        "name":"Bānki",
        "country":"India",
        "countryCode":"IN",
        "region":"Odisha",
        "regionCode":"OR",
        "latitude":20.37912,
        "longitude":85.52953
    },
    {
        "id":57232,
        "wikiDataId":"Q1949030",
        "type":"CITY",
        "city":"Bānkura",
        "name":"Bānkura",
        "country":"India",
        "countryCode":"IN",
        "region":"West Bengal",
        "regionCode":"WB",
        "latitude":23.23241,
        "longitude":87.0716
    },
    {
        "id":147712,
        "wikiDataId":"Q2088458",
        "type":"ADM2",
        "city":"Bānkurā",
        "name":"Bānkurā",
        "country":"India",
        "countryCode":"IN",
        "region":"West Bengal",
        "regionCode":"WB",
        "latitude":23.25,
        "longitude":87.25
    },
    {
        "id":57313,
        "type":"CITY",
        "city":"Bānposh",
        "name":"Bānposh",
        "country":"India",
        "countryCode":"IN",
        "region":"Odisha",
        "regionCode":"OR",
        "latitude":22.24834,
        "longitude":84.81044
    },
    {
        "id":57243,
        "wikiDataId":"Q622607",
        "type":"CITY",
        "city":"Bānsbāria",
        "name":"Bānsbāria",
        "country":"India",
        "countryCode":"IN",
        "region":"West Bengal",
        "regionCode":"WB",
        "latitude":22.95387,
        "longitude":88.40098
    },
    {
        "id":57156,
        "wikiDataId":"Q637106",
        "type":"CITY",
        "city":"Bānsdīh",
        "name":"Bānsdīh",
        "country":"India",
        "countryCode":"IN",
        "region":"Uttar Pradesh",
        "regionCode":"UP",
        "latitude":25.88377,
        "longitude":84.21827
    },
    {
        "id":57435,
        "wikiDataId":"Q625687",
        "type":"CITY",
        "city":"Bānsgāon",
        "name":"Bānsgāon",
        "country":"India",
        "countryCode":"IN",
        "region":"Uttar Pradesh",
        "regionCode":"UP",
        "latitude":26.55032,
        "longitude":83.34503
    },
    {
        "id":56846,
        "wikiDataId":"Q637722",
        "type":"CITY",
        "city":"Bānsi",
        "name":"Bānsi",
        "country":"India",
        "countryCode":"IN",
        "region":"Uttar Pradesh",
        "regionCode":"UP",
        "latitude":27.17749,
        "longitude":82.93442
    },
    {
        "id":57039,
        "wikiDataId":"Q3428196",
        "type":"CITY",
        "city":"Bānswāda",
        "name":"Bānswāda",
        "country":"India",
        "countryCode":"IN",
        "region":"Telangana",
        "regionCode":"TG",
        "latitude":18.37725,
        "longitude":77.88007
    },
    {
        "id":57433,
        "wikiDataId":"Q633308",
        "type":"CITY",
        "city":"Bānswāra",
        "name":"Bānswāra",
        "country":"India",
        "countryCode":"IN",
        "region":"Rajasthan",
        "regionCode":"RJ",
        "latitude":23.54109,
        "longitude":74.4425
    },
    {
        "id":57562,
        "wikiDataId":"Q625718",
        "type":"CITY",
        "city":"Bāntva",
        "name":"Bāntva",
        "country":"India",
        "countryCode":"IN",
        "region":"Gujarat",
        "regionCode":"GJ",
        "latitude":21.48815,
        "longitude":70.07576
    },
    {
        "id":57762,
        "type":"CITY",
        "city":"Bānāvar",
        "name":"Bānāvar",
        "country":"India",
        "countryCode":"IN",
        "region":"Karnataka",
        "regionCode":"KA",
        "latitude":13.41029,
        "longitude":76.16314
    },
    {
        "id":56920,
        "wikiDataId":"Q633274",
        "type":"CITY",
        "city":"Bāpatla",
        "name":"Bāpatla",
        "country":"India",
        "countryCode":"IN",
        "region":"Andhra Pradesh",
        "regionCode":"AP",
        "latitude":15.90422,
        "longitude":80.46743
    },
    {
        "id":147709,
        "type":"ADM2",
        "city":"Bāra Banki",
        "name":"Bāra Banki",
        "country":"India",
        "countryCode":"IN",
        "region":"Uttar Pradesh",
        "regionCode":"UP",
        "latitude":26.93864,
        "longitude":81.3274
    },
    {
        "id":147702,
        "type":"ADM2",
        "city":"Bāramūla",
        "name":"Bāramūla",
        "country":"India",
        "countryCode":"IN",
        "region":"Jammu and Kashmir",
        "regionCode":"JK",
        "latitude":34.19287,
        "longitude":74.3692
    },
    {
        "id":57544,
        "wikiDataId":"Q712003",
        "type":"CITY",
        "city":"Bārdoli",
        "name":"Bārdoli",
        "country":"India",
        "countryCode":"IN",
        "region":"Gujarat",
        "regionCode":"GJ",
        "latitude":21.12297,
        "longitude":73.11151
    },
    {
        "id":57629,
        "wikiDataId":"Q709313",
        "type":"CITY",
        "city":"Bārh",
        "name":"Bārh",
        "country":"India",
        "countryCode":"IN",
        "region":"Bihar",
        "regionCode":"BR",
        "latitude":25.48339,
        "longitude":85.70928
    },
    {
        "id":56977,
        "wikiDataId":"Q707848",
        "type":"CITY",
        "city":"Bāri",
        "name":"Bāri",
        "country":"India",
        "countryCode":"IN",
        "region":"Rajasthan",
        "regionCode":"RJ",
        "latitude":26.64661,
        "longitude":77.61634
    },
    {
        "id":147701,
        "wikiDataId":"Q42016",
        "type":"ADM2",
        "city":"Bārmer",
        "name":"Bārmer",
        "country":"India",
        "countryCode":"IN",
        "region":"Rajasthan",
        "regionCode":"RJ",
        "latitude":25.75,
        "longitude":71.5
    },
    {
        "id":57073,
        "type":"CITY",
        "city":"Bārsi",
        "name":"Bārsi",
        "country":"India",
        "countryCode":"IN",
        "region":"Maharashtra",
        "regionCode":"MH",
        "latitude":18.23454,
        "longitude":75.69275
    },
    {
        "id":57082,
        "wikiDataId":"Q708616",
        "type":"CITY",
        "city":"Bāruipur",
        "name":"Bāruipur",
        "country":"India",
        "countryCode":"IN",
        "region":"West Bengal",
        "regionCode":"WB",
        "latitude":22.35253,
        "longitude":88.43882
    },
    {
        "id":57142,
        "type":"CITY",
        "city":"Bāruni",
        "name":"Bāruni",
        "country":"India",
        "countryCode":"IN",
        "region":"Bihar",
        "regionCode":"BR",
        "latitude":25.47509,
        "longitude":85.96813
    },
    {
        "id":57233,
        "wikiDataId":"Q709298",
        "type":"CITY",
        "city":"Bārākpur",
        "name":"Bārākpur",
        "country":"India",
        "countryCode":"IN",
        "region":"West Bengal",
        "regionCode":"WB",
        "latitude":22.76602,
        "longitude":88.36336
    },
    {
        "id":57218,
        "type":"CITY",
        "city":"Bārāmati",
        "name":"Bārāmati",
        "country":"India",
        "countryCode":"IN",
        "region":"Maharashtra",
        "regionCode":"MH",
        "latitude":18.15174,
        "longitude":74.57767
    },
    {
        "id":57694,
        "wikiDataId":"Q1816726",
        "type":"CITY",
        "city":"Bārān",
        "name":"Bārān",
        "country":"India",
        "countryCode":"IN",
        "region":"Rajasthan",
        "regionCode":"RJ",
        "latitude":25.1,
        "longitude":76.51667
    },
    {
        "id":57239,
        "wikiDataId":"Q685315",
        "type":"CITY",
        "city":"Bārāsat",
        "name":"Bārāsat",
        "country":"India",
        "countryCode":"IN",
        "region":"West Bengal",
        "regionCode":"WB",
        "latitude":22.22516,
        "longitude":88.45086
    },
    {
        "id":56873,
        "wikiDataId":"Q714617",
        "type":"CITY",
        "city":"Bāsoda",
        "name":"Bāsoda",
        "country":"India",
        "countryCode":"IN",
        "region":"Madhya Pradesh",
        "regionCode":"MP",
        "latitude":23.85153,
        "longitude":77.93652
    },
    {
        "id":57461,
        "wikiDataId":"Q712632",
        "type":"CITY",
        "city":"Bāsudebpur",
        "name":"Bāsudebpur",
        "country":"India",
        "countryCode":"IN",
        "region":"Odisha",
        "regionCode":"OR",
        "latitude":21.11974,
        "longitude":86.72896
    },
    {
        "id":57638,
        "wikiDataId":"Q712428",
        "type":"CITY",
        "city":"Bāsugaon",
        "name":"Bāsugaon",
        "country":"India",
        "countryCode":"IN",
        "region":"Assam",
        "regionCode":"AS",
        "latitude":26.46742,
        "longitude":90.41951
    },
    {
        "id":57221,
        "type":"CITY",
        "city":"Bāsār",
        "name":"Bāsār",
        "country":"India",
        "countryCode":"IN",
        "region":"Arunachal Pradesh",
        "regionCode":"AR",
        "latitude":27.99008,
        "longitude":94.69451
    },
    {
        "id":57166,
        "wikiDataId":"Q759164",
        "type":"CITY",
        "city":"Bāwal",
        "name":"Bāwal",
        "country":"India",
        "countryCode":"IN",
        "region":"Haryana",
        "regionCode":"HR",
        "latitude":28.07184,
        "longitude":76.58312
    },
    {
        "id":57098,
        "type":"CITY",
        "city":"Bāwāli",
        "name":"Bāwāli",
        "country":"India",
        "countryCode":"IN",
        "region":"West Bengal",
        "regionCode":"WB",
        "latitude":22.42563,
        "longitude":88.19336
    },
    {
        "id":56824,
        "type":"CITY",
        "city":"Bāzpur",
        "name":"Bāzpur",
        "country":"India",
        "countryCode":"IN",
        "region":"Uttarakhand",
        "regionCode":"UT",
        "latitude":29.15299,
        "longitude":79.10814
    },
    {
        "id":147698,
        "wikiDataId":"Q1790568",
        "type":"ADM2",
        "city":"Bīdar",
        "name":"Bīdar",
        "country":"India",
        "countryCode":"IN",
        "region":"Karnataka",
        "regionCode":"KA",
        "latitude":18.08333,
        "longitude":77.33333
    },
    {
        "id":57379,
        "wikiDataId":"Q796734",
        "type":"CITY",
        "city":"Bīghāpur Khurd",
        "name":"Bīghāpur Khurd",
        "country":"India",
        "countryCode":"IN",
        "region":"Uttar Pradesh",
        "regionCode":"UP",
        "latitude":26.34734,
        "longitude":80.65698
    },
    {
        "id":56084,
        "wikiDataId":"Q200718",
        "type":"CITY",
        "city":"Bīkaner",
        "name":"Bīkaner",
        "country":"India",
        "countryCode":"IN",
        "region":"Rajasthan",
        "regionCode":"RJ",
        "latitude":28.01762,
        "longitude":73.31495
    },
    {
        "id":147683,
        "wikiDataId":"Q778996",
        "type":"ADM2",
        "city":"Bīkāner",
        "name":"Bīkāner",
        "country":"India",
        "countryCode":"IN",
        "region":"Rajasthan",
        "regionCode":"RJ",
        "latitude":28.16667,
        "longitude":73.16667
    },
    {
        "id":56098,
        "wikiDataId":"Q795718",
        "type":"CITY",
        "city":"Bīkāpur",
        "name":"Bīkāpur",
        "country":"India",
        "countryCode":"IN",
        "region":"Uttar Pradesh",
        "regionCode":"UP",
        "latitude":26.59534,
        "longitude":82.13272
    },
    {
        "id":56593,
        "type":"CITY",
        "city":"Bīlāspur",
        "name":"Bīlāspur",
        "country":"India",
        "countryCode":"IN",
        "region":"Uttar Pradesh",
        "regionCode":"UP",
        "latitude":28.88655,
        "longitude":79.2703
    },
    {
        "id":147692,
        "wikiDataId":"Q2088440",
        "type":"ADM2",
        "city":"Bīrbhūm",
        "name":"Bīrbhūm",
        "country":"India",
        "countryCode":"IN",
        "region":"West Bengal",
        "regionCode":"WB",
        "latitude":24.0,
        "longitude":87.58333
    },
    {
        "id":55822,
        "type":"CITY",
        "city":"Bīrpur",
        "name":"Bīrpur",
        "country":"India",
        "countryCode":"IN",
        "region":"Bihar",
        "regionCode":"BR",
        "latitude":26.50823,
        "longitude":87.01194
    },
    {
        "id":56551,
        "wikiDataId":"Q858297",
        "type":"CITY",
        "city":"Bīsalpur",
        "name":"Bīsalpur",
        "country":"India",
        "countryCode":"IN",
        "region":"Uttar Pradesh",
        "regionCode":"UP",
        "latitude":28.29253,
        "longitude":79.80472
    },
    {
        "id":55799,
        "wikiDataId":"Q862612",
        "type":"CITY",
        "city":"Būndi",
        "name":"Būndi",
        "country":"India",
        "countryCode":"IN",
        "region":"Rajasthan",
        "regionCode":"RJ",
        "latitude":25.43855,
        "longitude":75.63735
    },
    {
        "id":56443,
        "type":"CITY",
        "city":"Būndu",
        "name":"Būndu",
        "country":"India",
        "countryCode":"IN",
        "region":"Jharkhand",
        "regionCode":"JH",
        "latitude":23.16095,
        "longitude":85.59007
    },
    {
        "id":55782,
        "type":"CITY",
        "city":"Būriya",
        "name":"Būriya",
        "country":"India",
        "countryCode":"IN",
        "region":"Haryana",
        "regionCode":"HR",
        "latitude":30.15911,
        "longitude":77.35814
    },
    {
        "id":56356,
        "wikiDataId":"Q861976",
        "type":"CITY",
        "city":"Calangute",
        "name":"Calangute",
        "country":"India",
        "countryCode":"IN",
        "region":"Goa",
        "regionCode":"GA",
        "latitude":15.5439,
        "longitude":73.7553
    },
    {
        "id":56834,
        "type":"CITY",
        "city":"Canacona",
        "name":"Canacona",
        "country":"India",
        "countryCode":"IN",
        "region":"Karnataka",
        "regionCode":"KA",
        "latitude":14.9959,
        "longitude":74.05056
    },
    {
        "id":56461,
        "wikiDataId":"Q858424",
        "type":"CITY",
        "city":"Candolim",
        "name":"Candolim",
        "country":"India",
        "countryCode":"IN",
        "region":"Goa",
        "regionCode":"GA",
        "latitude":15.51807,
        "longitude":73.76259
    },
    {
        "id":56416,
        "wikiDataId":"Q4886236",
        "type":"CITY",
        "city":"Canning",
        "name":"Canning",
        "country":"India",
        "countryCode":"IN",
        "region":"West Bengal",
        "regionCode":"WB",
        "latitude":22.31453,
        "longitude":88.66248
    },
    {
        "id":56693,
        "wikiDataId":"Q2544447",
        "type":"CITY",
        "city":"Captainganj",
        "name":"Captainganj",
        "country":"India",
        "countryCode":"IN",
        "region":"Uttar Pradesh",
        "regionCode":"UP",
        "latitude":26.9264,
        "longitude":83.71334
    },
    {
        "id":56649,
        "wikiDataId":"Q861379",
        "type":"CITY",
        "city":"Carapur",
        "name":"Carapur",
        "country":"India",
        "countryCode":"IN",
        "region":"Goa",
        "regionCode":"GA",
        "latitude":15.56588,
        "longitude":73.98713
    },
    {
        "id":56335,
        "wikiDataId":"Q5054993",
        "type":"CITY",
        "city":"Cavelossim",
        "name":"Cavelossim",
        "country":"India",
        "countryCode":"IN",
        "region":"Goa",
        "regionCode":"GA",
        "latitude":15.17255,
        "longitude":73.94194
    },
    {
        "id":147866,
        "wikiDataId":"Q107941",
        "type":"ADM2",
        "city":"Central Delhi",
        "name":"Central Delhi",
        "country":"India",
        "countryCode":"IN",
        "region":"Delhi",
        "regionCode":"DL",
        "latitude":28.64857,
        "longitude":77.21895
    },
    {
        "id":56129,
        "wikiDataId":"Q3665740",
        "type":"CITY",
        "city":"Chail",
        "name":"Chail",
        "country":"India",
        "countryCode":"IN",
        "region":"Uttar Pradesh",
        "regionCode":"UP",
        "latitude":25.42654,
        "longitude":81.63198
    },
    {
        "id":56950,
        "wikiDataId":"Q857735",
        "type":"CITY",
        "city":"Chakapara",
        "name":"Chakapara",
        "country":"India",
        "countryCode":"IN",
        "region":"West Bengal",
        "regionCode":"WB",
        "latitude":22.63222,
        "longitude":88.34861
    },
    {
        "id":55940,
        "wikiDataId":"Q3665752",
        "type":"CITY",
        "city":"Chakia",
        "name":"Chakia",
        "country":"India",
        "countryCode":"IN",
        "region":"Uttar Pradesh",
        "regionCode":"UP",
        "latitude":25.04891,
        "longitude":83.22155
    },
    {
        "id":56586,
        "wikiDataId":"Q607388",
        "type":"CITY",
        "city":"Chaklāsi",
        "name":"Chaklāsi",
        "country":"India",
        "countryCode":"IN",
        "region":"Gujarat",
        "regionCode":"GJ",
        "latitude":22.6532,
        "longitude":72.94497
    },
    {
        "id":55976,
        "wikiDataId":"Q278913",
        "type":"CITY",
        "city":"Chakradharpur",
        "name":"Chakradharpur",
        "country":"India",
        "countryCode":"IN",
        "region":"Jharkhand",
        "regionCode":"JH",
        "latitude":22.67611,
        "longitude":85.62892
    },
    {
        "id":56235,
        "wikiDataId":"Q858555",
        "type":"CITY",
        "city":"Chakrāta",
        "name":"Chakrāta",
        "country":"India",
        "countryCode":"IN",
        "region":"Uttarakhand",
        "regionCode":"UT",
        "latitude":30.70369,
        "longitude":77.86386
    },
    {
        "id":56039,
        "wikiDataId":"Q861891",
        "type":"CITY",
        "city":"Chaksu",
        "name":"Chaksu",
        "country":"India",
        "countryCode":"IN",
        "region":"Rajasthan",
        "regionCode":"RJ",
        "latitude":26.6051,
        "longitude":75.94814
    },
    {
        "id":56437,
        "wikiDataId":"Q2340109",
        "type":"CITY",
        "city":"Challakere",
        "name":"Challakere",
        "country":"India",
        "countryCode":"IN",
        "region":"Karnataka",
        "regionCode":"KA",
        "latitude":14.318,
        "longitude":76.65165
    },
    {
        "id":55954,
        "type":"CITY",
        "city":"Challapalle",
        "name":"Challapalle",
        "country":"India",
        "countryCode":"IN",
        "region":"Andhra Pradesh",
        "regionCode":"AP",
        "latitude":16.11756,
        "longitude":80.93139
    },
    {
        "id":56353,
        "wikiDataId":"Q858287",
        "type":"CITY",
        "city":"Chalāla",
        "name":"Chalāla",
        "country":"India",
        "countryCode":"IN",
        "region":"Gujarat",
        "regionCode":"GJ",
        "latitude":21.41073,
        "longitude":71.16621
    },
    {
        "id":147678,
        "wikiDataId":"Q1060614",
        "type":"ADM2",
        "city":"Chamba",
        "name":"Chamba",
        "country":"India",
        "countryCode":"IN",
        "region":"Himachal Pradesh",
        "regionCode":"HP",
        "latitude":32.57147,
        "longitude":76.10229
    },
    {
        "id":147673,
        "wikiDataId":"Q1797372",
        "type":"ADM2",
        "city":"Chamoli",
        "name":"Chamoli",
        "country":"India",
        "countryCode":"IN",
        "region":"Uttarakhand",
        "regionCode":"UT",
        "latitude":30.5,
        "longitude":79.5
    },
    {
        "id":147824,
        "type":"ADM2",
        "city":"Champawat",
        "name":"Champawat",
        "country":"India",
        "countryCode":"IN",
        "region":"Uttarakhand",
        "regionCode":"UT",
        "latitude":29.28756,
        "longitude":80.03737
    },
    {
        "id":147993,
        "wikiDataId":"Q1965256",
        "type":"ADM2",
        "city":"Champhai",
        "name":"Champhai",
        "country":"India",
        "countryCode":"IN",
        "region":"Mizoram",
        "regionCode":"MZ",
        "latitude":23.47444,
        "longitude":93.32556
    },
    {
        "id":147865,
        "type":"ADM2",
        "city":"Chamrajnagar",
        "name":"Chamrajnagar",
        "country":"India",
        "countryCode":"IN",
        "region":"Karnataka",
        "regionCode":"KA",
        "latitude":11.96,
        "longitude":77.09
    },
    {
        "id":56673,
        "wikiDataId":"Q695591",
        "type":"CITY",
        "city":"Chandannagar",
        "name":"Chandannagar",
        "country":"India",
        "countryCode":"IN",
        "region":"West Bengal",
        "regionCode":"WB",
        "latitude":22.86225,
        "longitude":88.36796
    },
    {
        "id":56201,
        "wikiDataId":"Q2733368",
        "type":"CITY",
        "city":"Chandauli",
        "name":"Chandauli",
        "country":"India",
        "countryCode":"IN",
        "region":"Uttar Pradesh",
        "regionCode":"UP",
        "latitude":25.25803,
        "longitude":83.26825
    },
    {
        "id":147953,
        "type":"ADM2",
        "city":"Chandauli District",
        "name":"Chandauli District",
        "country":"India",
        "countryCode":"IN",
        "region":"Uttar Pradesh",
        "regionCode":"UP",
        "latitude":25.26134,
        "longitude":83.26408
    },
    {
        "id":56434,
        "wikiDataId":"Q860192",
        "type":"CITY",
        "city":"Chanderi",
        "name":"Chanderi",
        "country":"India",
        "countryCode":"IN",
        "region":"Madhya Pradesh",
        "regionCode":"MP",
        "latitude":24.71312,
        "longitude":78.13809
    },
    {
        "id":56675,
        "wikiDataId":"Q2446932",
        "type":"CITY",
        "city":"Chandia",
        "name":"Chandia",
        "country":"India",
        "countryCode":"IN",
        "region":"Madhya Pradesh",
        "regionCode":"MP",
        "latitude":23.65647,
        "longitude":80.70911
    },
    {
        "id":56708,
        "type":"CITY",
        "city":"Chandigarh",
        "name":"Chandigarh",
        "country":"India",
        "countryCode":"IN",
        "region":"Chandigarh",
        "regionCode":"CH",
        "latitude":30.73629,
        "longitude":76.7884
    },
    {
        "id":55898,
        "wikiDataId":"Q858413",
        "type":"CITY",
        "city":"Chandla",
        "name":"Chandla",
        "country":"India",
        "countryCode":"IN",
        "region":"Madhya Pradesh",
        "regionCode":"MP",
        "latitude":25.07148,
        "longitude":80.19294
    },
    {
        "id":56710,
        "wikiDataId":"Q859119",
        "type":"CITY",
        "city":"Chandrakona",
        "name":"Chandrakona",
        "country":"India",
        "countryCode":"IN",
        "region":"West Bengal",
        "regionCode":"WB",
        "latitude":22.73333,
        "longitude":87.51667
    },
    {
        "id":147961,
        "wikiDataId":"Q1797274",
        "type":"ADM2",
        "city":"Chandrapur",
        "name":"Chandrapur",
        "country":"India",
        "countryCode":"IN",
        "region":"Maharashtra",
        "regionCode":"MH",
        "latitude":20.11793,
        "longitude":79.44377
    },
    {
        "id":55925,
        "wikiDataId":"Q858672",
        "type":"CITY",
        "city":"Chanduasi",
        "name":"Chanduasi",
        "country":"India",
        "countryCode":"IN",
        "region":"Uttar Pradesh",
        "regionCode":"UP",
        "latitude":28.45178,
        "longitude":78.78277
    },
    {
        "id":57630,
        "wikiDataId":"Q721388",
        "type":"CITY",
        "city":"Chandūr",
        "name":"Chandūr",
        "country":"India",
        "countryCode":"IN",
        "region":"Telangana",
        "regionCode":"TG",
        "latitude":17.87455,
        "longitude":78.10017
    },
    {
        "id":56271,
        "type":"CITY",
        "city":"Changanācheri",
        "name":"Changanācheri",
        "country":"India",
        "countryCode":"IN",
        "region":"Kerala",
        "regionCode":"KL",
        "latitude":9.44203,
        "longitude":76.53604
    },
    {
        "id":148001,
        "wikiDataId":"Q15427",
        "type":"ADM2",
        "city":"Changlang",
        "name":"Changlang",
        "country":"India",
        "countryCode":"IN",
        "region":"Arunachal Pradesh",
        "regionCode":"AR",
        "latitude":27.36265,
        "longitude":96.34518
    },
    {
        "id":55946,
        "type":"CITY",
        "city":"Channagiri",
        "name":"Channagiri",
        "country":"India",
        "countryCode":"IN",
        "region":"Karnataka",
        "regionCode":"KA",
        "latitude":14.02399,
        "longitude":75.92577
    },
    {
        "id":56580,
        "wikiDataId":"Q721354",
        "type":"CITY",
        "city":"Channapatna",
        "name":"Channapatna",
        "country":"India",
        "countryCode":"IN",
        "region":"Karnataka",
        "regionCode":"KA",
        "latitude":12.65143,
        "longitude":77.20672
    },
    {
        "id":56621,
        "wikiDataId":"Q886632",
        "type":"CITY",
        "city":"Channarāyapatna",
        "name":"Channarāyapatna",
        "country":"India",
        "countryCode":"IN",
        "region":"Karnataka",
        "regionCode":"KA",
        "latitude":12.90642,
        "longitude":76.38775
    },
    {
        "id":55937,
        "wikiDataId":"Q888946",
        "type":"CITY",
        "city":"Charkhi Dādri",
        "name":"Charkhi Dādri",
        "country":"India",
        "countryCode":"IN",
        "region":"Haryana",
        "regionCode":"HR",
        "latitude":28.59166,
        "longitude":76.27161
    },
    {
        "id":56407,
        "wikiDataId":"Q886602",
        "type":"CITY",
        "city":"Charkhāri",
        "name":"Charkhāri",
        "country":"India",
        "countryCode":"IN",
        "region":"Uttar Pradesh",
        "regionCode":"UP",
        "latitude":25.40304,
        "longitude":79.74877
    }
]
